venue_id,title,address,updated_at,lat,lon,total_participants,max_distance,recent_messages
284,Prohibition Brisbane,"206 Wickham St, Fortitude Valley QLD 4006, Australia",0000-00-00 00:00:00,-27.4578,153.033,0,55,
285,The Beat Megaclub,"677 Ann St, Fortitude Valley QLD 4006, Australia",0000-00-00 00:00:00,-27.4581,153.036,0,55,
286,Retro's Fortitude Valley,"32/321 Brunswick St, Fortitude Valley QLD 4006, Australia",2021-12-27 02:38:43,-27.4582,153.034,0,55,
287,The MET Brisbane,"256 Wickham St, Fortitude Valley QLD 4006, Australia",0000-00-00 00:00:00,-27.4568,153.034,0,55,
288,FAMOUS,"299 Brunswick St, Fortitude Valley QLD 4006, Australia",0000-00-00 00:00:00,-27.4579,153.034,0,55,
289,Birdees,"608 Ann St, Fortitude Valley QLD 4006, Australia",2022-06-19 03:15:45,-27.4594,153.034,1,55,"[{""text"":""Updated Venue"",""_id"":""665"",""createdAt"":""2022-06-19T10:15:44.887Z"",""user"":{""_id"":""665"",""name"":""Brenda"",""avatar"":""|2063419226_1653683912.jpeg""}},{""text"":""Updated Venue"",""_id"":""665"",""createdAt"":""2022-06-09T08:59:34.124Z"",""user"":{""_id"":""665"",""name"":""Brenda"",""avatar"":""|2063419226_1653683912.jpeg""}},{""text"":""Updated Venue"",""_id"":""665"",""createdAt"":""2022-06-07T17:57:43.439Z"",""user"":{""_id"":""665"",""name"":""Brenda"",""avatar"":""|2063419226_1653683912.jpeg""}},{""text"":""Updated Venue"",""_id"":""205"",""createdAt"":""2022-06-01T09:31:26.001Z"",""user"":{""_id"":""205"",""name"":""Callum"",""avatar"":""|1141643216_1637940927.jpeg""}}]"
290,Press Club,"339 Brunswick St, Fortitude Valley QLD 4006, Australia",0000-00-00 00:00:00,-27.4588,153.035,0,55,
291,OMFGs Adult Lounge,"1/367 Brunswick St, Fortitude Valley QLD 4006, Australia",0000-00-00 00:00:00,-27.4591,153.036,0,55,
292,Sub Rosa,"188 Brunswick St, Fortitude Valley QLD 4006, Australia",0000-00-00 00:00:00,-27.456,153.032,0,55,
293,Club XOXO,"18 McLachlan St, Fortitude Valley QLD 4006, Australia",0000-00-00 00:00:00,-27.4592,153.035,0,55,
294,Sky and Lotus,"Level 1/234 Wickham St, Fortitude Valley QLD 4006, Australia",0000-00-00 00:00:00,-27.4573,153.033,0,55,
295,Candy Club Strip Club,"198 Wickham St, Fortitude Valley QLD 4006, Australia",0000-00-00 00:00:00,-27.4579,153.033,0,55,
296,Shades,"648 Ann St, Fortitude Valley QLD 4006, Australia",0000-00-00 00:00:00,-27.4587,153.035,0,55,
297,Lost Bar,"693 Ann St, Fortitude Valley QLD 4006, Australia",0000-00-00 00:00:00,-27.4579,153.036,0,55,
298,GPO Hotel,"740 Ann St, Fortitude Valley QLD 4006, Australia",0000-00-00 00:00:00,-27.4569,153.036,0,55,
299,Love & Rockets - Fortitude Valle,"693 Ann St, Fortitude Valley QLD 4006, Australia",0000-00-00 00:00:00,-27.458,153.036,0,55,
300,Tony’s on Brunswick,"239 Brunswick St, Fortitude Valley QLD 4006, Australia",0000-00-00 00:00:00,-27.4571,153.033,0,55,
301,Kittens Strip Club - Brisbane,"239 Brunswick St, Fortitude Valley QLD 4006, Australia",0000-00-00 00:00:00,-27.4571,153.033,0,55,
302,The Grosvenor The Valley - Tople,"206 Wickham St, Fortitude Valley QLD 4006, Australia",0000-00-00 00:00:00,-27.4578,153.033,0,55,
303,CLUB29,"29 McLachlan St, Fortitude Valley QLD 4006, Australia",0000-00-00 00:00:00,-27.4587,153.036,0,55,
304,Na Laje,"758 Ann St, Fortitude Valley QLD 4006, Australia",0000-00-00 00:00:00,-27.4567,153.037,0,55,
305,The Cabaret Nightclub,"217 Brunswick St, Fortitude Valley QLD 4006, Australia",0000-00-00 00:00:00,-27.4566,153.032,0,55,
306,Drunken Monkey,"18 McLachlan St, Fortitude Valley QLD 4006, Australia",0000-00-00 00:00:00,-27.4593,153.035,0,55,
307,Su Casa Nightclub,"239 Brunswick St, Fortitude Valley QLD 4006, Australia",0000-00-00 00:00:00,-27.4571,153.033,0,55,
308,Laruche,"680 Ann St, Fortitude Valley QLD 4006, Australia",0000-00-00 00:00:00,-27.4581,153.035,0,55,
309,Mi Casa Nightclub Brisbane,"239 Brunswick St, Fortitude Valley QLD 4006, Australia",0000-00-00 00:00:00,-27.4571,153.033,0,55,
310,Eye Candy Strip Club,"249 Brunswick St, Fortitude Valley QLD 4006, Australia",0000-00-00 00:00:00,-27.4573,153.033,0,55,
311,Cloudland,"641 Ann St, Fortitude Valley QLD 4006, Australia",0000-00-00 00:00:00,-27.4589,153.035,0,55,
312,Valley Social Club,"188 Brunswick St, Fortitude Valley QLD 4006, Australia",0000-00-00 00:00:00,-27.456,153.032,0,55,
313,Ella Sabe,"621 Ann St, Fortitude Valley QLD 4006, Australia",0000-00-00 00:00:00,-27.4593,153.035,0,55,
314,Goodlife Health Clubs Fortitude,"Homemaker The Valley North, Montpelier Rd &, Wickham St, Fortitu",0000-00-00 00:00:00,-27.4502,153.04,1,55,
315,The Palace Lounge Bar,"12 Duncan St, Fortitude Valley QLD 4006, Australia",0000-00-00 00:00:00,-27.4581,153.033,0,55,
316,BLVD NIGHTCLUB,"693 Ann St, Fortitude Valley QLD 4006, Australia",2022-05-28 05:15:04,-27.4579,153.036,1,55,"[{""text"":""Updated Venue"",""_id"":""665"",""createdAt"":""2022-05-28T12:15:03.380Z"",""user"":{""_id"":""665"",""name"":""Brenda"",""avatar"":""|2063419226_1653683912.jpeg""}}]"
317,Marquee Bar,"336 Brunswick St, Fortitude Valley QLD 4006, Australia",0000-00-00 00:00:00,-27.4583,153.035,0,55,
318,Players Brisbane,"180 Mary St, Brisbane City QLD 4000, Australia",0000-00-00 00:00:00,-27.4703,153.029,0,55,
319,Ric's Bar,"321 Brunswick St, Fortitude Valley QLD 4006, Australia",0000-00-00 00:00:00,-27.4582,153.034,0,55,
320,Woolly Mammoth Mane Stage,"633 Ann St, Fortitude Valley QLD 4006, Australia",0000-00-00 00:00:00,-27.459,153.035,0,55,
321,Farrier Bar & Supper Club,"164 Arthur St, Fortitude Valley QLD 4006, Australia",0000-00-00 00:00:00,-27.4576,153.041,0,55,
322,Holey Moley Golf Club Fortitude,"25 Warner St, Fortitude Valley QLD 4006, Australia",0000-00-00 00:00:00,-27.4572,153.035,0,55,
323,The Wickham,"308 Wickham St, Fortitude Valley QLD 4006, Australia",0000-00-00 00:00:00,-27.456,153.035,0,55,
324,Oche Fortitude Valley,"111 Constance St, Fortitude Valley QLD 4006, Australia",0000-00-00 00:00:00,-27.455,153.035,0,55,
325,Bloodhound Corner Bar & Kitchen,"454 Brunswick St, Fortitude Valley QLD 4006, Australia",0000-00-00 00:00:00,-27.4601,153.037,0,55,
326,Finn McCool's Fortitude Valley,"295 Brunswick St, Fortitude Valley QLD 4006, Australia",0000-00-00 00:00:00,-27.458,153.034,0,55,
328,Osbourne Hotel,"766 Ann St, Fortitude Valley QLD 4006, Australia",0000-00-00 00:00:00,-27.4565,153.037,0,55,
329,Shhh! Brisbane,"0 Constance St, Fortitude Valley QLD 4006, Australia",0000-00-00 00:00:00,-27.4564,153.037,0,55,
330,The Valley Wine Bar,"171 Alfred St, Fortitude Valley QLD 4006, Australia",0000-00-00 00:00:00,-27.4572,153.032,1,55,
332,Elixir Rooftop Bar,"646 Ann St, Fortitude Valley QLD 4006, Australia",0000-00-00 00:00:00,-27.4587,153.035,0,55,
333,At Sixes And Sevens,"67 James St, Fortitude Valley QLD 4006, Australia",0000-00-00 00:00:00,-27.4577,153.041,0,55,
334,Tomcat,"1/210 Wickham St, Fortitude Valley QLD 4006, Australia",0000-00-00 00:00:00,-27.4577,153.033,0,55,
335,Blute's Bar,"Ground Level, 322 Brunswick St, Fortitude Valley QLD 4006, Austr",0000-00-00 00:00:00,-27.4581,153.035,0,55,
336,Pig 'N' Whistle Brunswick Street,"Brunswick Street &, Robertson St, Fortitude Valley QLD 4006, Aus",0000-00-00 00:00:00,-27.46,153.037,0,55,
337,Savile Row,"667 Ann St, Fortitude Valley QLD 4006, Australia",0000-00-00 00:00:00,-27.4583,153.035,0,55,
338,Dutch Courage - gin bar & restau,"51 Alfred St, Fortitude Valley QLD 4006, Australia",0000-00-00 00:00:00,-27.4548,153.034,0,55,
340,Gerard's Bar,"13a/23 James St, Fortitude Valley QLD 4006, Australia",0000-00-00 00:00:00,-27.4569,153.039,0,55,
341,Empire Hotel,"339 Brunswick St, Fortitude Valley QLD 4006, Australia",0000-00-00 00:00:00,-27.4587,153.035,0,55,
342,B. Lucky & Sons Fortitude Valley,"TCB, Shop T1/315 Brunswick St, Fortitude Valley QLD 4006, Austra",0000-00-00 00:00:00,-27.4584,153.034,0,55,
343,Lobby Bar,"48 James St, Fortitude Valley QLD 4006, Australia",2022-06-01 02:52:15,-27.4565,153.04,0,55,"[{""text"":""Updated Venue"",""_id"":""205"",""createdAt"":""2022-06-01T09:52:14.257Z"",""user"":{""_id"":""205"",""name"":""Callum"",""avatar"":""|1141643216_1637940927.jpeg""}},{""text"":""Updated Venue"",""_id"":""205"",""createdAt"":""2022-06-01T09:41:04.681Z"",""user"":{""_id"":""205"",""name"":""Callum"",""avatar"":""|1141643216_1637940927.jpeg""}}]"
344,MAYA Mexican,"757 Ann St, Fortitude Valley QLD 4006, Australia",0000-00-00 00:00:00,-27.4569,153.037,0,55,
345,Mr Chester Wine Bar & Bistro,"2/850 Ann St, Fortitude Valley QLD 4006, Australia",0000-00-00 00:00:00,-27.4549,153.038,2,55,
346,Ivory Tusk,"1/633 Ann St, Fortitude Valley QLD 4006, Australia",0000-00-00 00:00:00,-27.4591,153.035,1,55,
347,Waterloo Hotel,"Ann St &, Commercial Rd, Fortitude Valley QLD 4006, Australia",2022-06-01 03:43:00,-27.4527,153.041,0,55,"[{""text"":""Updated Venue"",""_id"":""205"",""createdAt"":""2022-06-01T10:42:59.001Z"",""user"":{""_id"":""205"",""name"":""Callum"",""avatar"":""|1141643216_1637940927.jpeg""}},{""text"":""Updated Venue"",""_id"":""205"",""createdAt"":""2022-06-01T09:51:57.520Z"",""user"":{""_id"":""205"",""name"":""Callum"",""avatar"":""|1141643216_1637940927.jpeg""}}]"
348,Greaser,"259 Brunswick St, Fortitude Valley QLD 4006, Australia",0000-00-00 00:00:00,-27.4574,153.033,0,55,
349,The Sound Garden,"318 Brunswick St, Fortitude Valley QLD 4006, Australia",0000-00-00 00:00:00,-27.4579,153.035,0,55,
350,Alfred & Constance,"132 Constance St, Fortitude Valley QLD 4006, Australia",2022-06-01 03:08:15,-27.4545,153.034,0,55,"[{""text"":""Updated Venue"",""_id"":""205"",""createdAt"":""2022-06-01T10:08:14.512Z"",""user"":{""_id"":""205"",""name"":""Callum"",""avatar"":""|1141643216_1637940927.jpeg""}}]"
351,Hotel Carrington,"143 Wickham St, Fortitude Valley QLD 4006, Australia",0000-00-00 00:00:00,-27.4587,153.033,0,55,
353,Brunswick Hotel,"569 Brunswick St, New Farm QLD 4005, Australia",0000-00-00 00:00:00,-27.4624,153.04,0,55,
354,Gerard’s Bistro,"14/15 James St, Fortitude Valley QLD 4006, Australia",0000-00-00 00:00:00,-27.4565,153.039,0,55,
355,Viscosity,"11 Connor St, Fortitude Valley QLD 4006, Australia",0000-00-00 00:00:00,-27.4566,153.038,0,55,
356,Stone & Copper,"1/421 Brunswick St, Fortitude Valley QLD 4006, Australia",0000-00-00 00:00:00,-27.4598,153.037,0,55,
357,Harveys,"4/31 James St, Fortitude Valley QLD 4006, Australia",0000-00-00 00:00:00,-27.4568,153.04,0,55,
358,Our Place,"299 Brunswick St, Fortitude Valley QLD 4006, Australia",0000-00-00 00:00:00,-27.458,153.034,0,55,
359,Baedeker - Wine Bar,"111 Constance St, Fortitude Valley QLD 4006, Australia",0000-00-00 00:00:00,-27.455,153.035,0,55,
361,Netherworld,"186 Brunswick St, Fortitude Valley QLD 4006, Australia",0000-00-00 00:00:00,-27.4559,153.032,1,55,
362,Jolly Roger Bar Fortitude Valley,"187 Wickham St, Fortitude Valley QLD 4006, Australia",0000-00-00 00:00:00,-27.4579,153.033,0,55,
363,Suzie Wongs Good Time Bar,"678 Ann St, Brisbane City QLD 4003, Australia",0000-00-00 00:00:00,-27.4582,153.035,0,55,
364,The University Of Queensland,St Lucia QLD 4072,0000-00-00 00:00:00,-27.502,153.007,1,300,
365,The Red Room,St Lucia QLD 4072,0000-00-00 00:00:00,-27.502,153.007,1,300,
366,The Metropolitan Museum of Art,"1000 5th Ave, New York, NY 10028, United States",2022-04-01 15:20:35,40.7731,-73.9665,1,200,"[{""text"":""Updated Venue"",""_id"":""546"",""createdAt"":""2022-04-01T22:20:34.841Z"",""user"":{""_id"":""546"",""name"":""Andrea Montalvo"",""avatar"":""|264443368_1646286285.jpeg""}},{""text"":""Updated Venue"",""_id"":""571"",""createdAt"":""2022-03-30T09:55:05.562Z"",""user"":{""_id"":""571"",""name"":""Queenofhearts"",""avatar"":""|83608708_1648618689.jpeg""}},{""text"":""Updated Venue"",""_id"":""569"",""createdAt"":""2022-03-30T05:17:19.525Z"",""user"":{""_id"":""569"",""name"":""Rolanda Blanc"",""avatar"":""|898484018_1648617163.jpeg""}},{""text"":""Updated Venue"",""_id"":""547"",""createdAt"":""2022-03-05T12:27:45.360Z"",""user"":{""_id"":""547"",""name"":""Michael"",""avatar"":""|443890089_1646482863.jpeg""}}]"
367,Central Park NY,"New York, NY, USA",2022-01-31 18:40:49,40.775,-73.972,0,500,"[{""text"":""Updated Venue"",""_id"":""535"",""createdAt"":""2022-02-01T02:40:48.960Z"",""user"":{""_id"":""535"",""name"":""Liz"",""avatar"":""|1163970636_1643683105.jpeg""}},{""text"":""Hi"",""user"":{""_id"":""384"",""name"":""Littlegirl21"",""avatar"":""|""},""createdAt"":""2022-01-08T18:51:57.699Z"",""_id"":""c0a0aef4-9f40-45e6-9af0-40f9aa8ea43a""},{""text"":""Hi"",""user"":{""_id"":""384"",""name"":""Littlegirl21"",""avatar"":""|""},""createdAt"":""2022-01-08T18:50:00.925Z"",""_id"":""2eac439b-8c67-434a-ba48-4657de8d03cc""},{""text"":""Updated Venue"",""_id"":""384"",""createdAt"":""2022-01-08T18:49:56.620Z"",""user"":{""_id"":""384"",""name"":""Littlegirl21"",""avatar"":""|""}}]"
368,Myer Center Brisbane,"91 Queen St, Brisbane City QLD 4000",0000-00-00 00:00:00,-27.4707,153.025,0,200,
369,Queensland University Of Technolgy,"2 George St, Brisbane City QLD 4000",0000-00-00 00:00:00,-27.4758,153.028,1,300,
370,Underground Pub,"Al Falea Street, Jumeirah Beach - Dubai - United Arab Emirates",0000-00-00 00:00:00,25.0859,55.1414,0,55,
371,Cobra Kai,35Q2+WWC - Al Sufouh - Al Sufouh 2 - Dubai - United Arab Emirate,0000-00-00 00:00:00,25.0898,55.1523,0,55,
372,Barasti Beach Club,Le Meridien Mina Syahi Beach Resort & Marina - Dubai Marina - Du,2023-04-23 02:00:11,25.0924,55.1455,1,55,"[{""text"":""Updated Venue"",""_id"":""665"",""createdAt"":""2023-04-23T09:00:10.354Z"",""user"":{""_id"":""665"",""name"":""Brenda"",""avatar"":""|2063419226_1653683912.jpeg""}},{""text"":""Updated Venue"",""_id"":""986"",""createdAt"":""2022-11-07T10:39:07.070Z"",""user"":{""_id"":""986"",""name"":""Mirza"",""avatar"":""|569880419_1667464660.png""}},{""text"":""Any upcoming meetup?"",""user"":{""_id"":""846"",""name"":""Adi"",""avatar"":""|982771410_1665424746.png""},""createdAt"":""2022-10-11T05:01:33.030Z"",""_id"":""a6aa6f17-d9a1-44e7-a3ea-82bf8a0c09e8""},{""text"":""This weekend"",""user"":{""_id"":""665"",""name"":""Brenda"",""avatar"":""|2063419226_1653683912.jpeg""},""createdAt"":""2022-09-21T19:36:17.188Z"",""_id"":""98262392-8c9c-44af-8a57-053841902e17""}]"
373,Soul,The Walk - Jumeirah Beach Residence - Dubai - United Arab Emirat,0000-00-00 00:00:00,25.0835,55.1402,0,55,
374,ICON Bar & Lounge,Al Falak St - Al Sufouh - Al Sufouh 2 - Dubai - United Arab Emir,0000-00-00 00:00:00,25.0936,55.1554,1,55,
375,Q43,"Al Falak Street, Dubai Media City Plot No.1, Media One Tower 43r",0000-00-00 00:00:00,25.0899,55.1524,0,55,
376,Pool Bar,King Salman Bin Abdulaziz Al Saud St - Dubai Marina - Dubai - Un,0000-00-00 00:00:00,25.0861,55.1411,0,55,
377,Latitude 25,"Le Méridien Mina Seyahi Beach Resort & Marina, Al Sufouh Road، D",0000-00-00 00:00:00,25.092,55.1473,1,55,
378,Infinity Bar,King Salman Bin Abdulaziz Al Saud St - Dubai Marina - Dubai - Un,0000-00-00 00:00:00,25.0844,55.1403,0,55,
379,Speakeasy,"Delta Hotels by Marriott Jumeirah Beach, Dubai, Bahar 7 - Jumeir",0000-00-00 00:00:00,25.0779,55.1361,1,55,
380,Observatory,King Salman Bin Abdulaziz Al Saud St - Dubai Marina - Dubai - Un,0000-00-00 00:00:00,25.0877,55.146,1,55,
381,Bar 44,"Grosvenor House Dubai, Al Emreef Street - Dubai - United Arab Em",2022-10-28 03:27:47,25.0858,55.1439,0,55,"[{""text"":""Anyone coming at Agenda Dubai tomorrow!"",""user"":{""_id"":""947"",""name"":""Ridham "",""avatar"":""|223209993_1666775138.png""},""createdAt"":""2022-10-28T10:27:46.476Z"",""_id"":""8c0b9a5a-db92-4715-8f3c-64dd2cb6e94f""},{""text"":""Hey"",""user"":{""_id"":""739"",""name"":""Gopakumar "",""avatar"":""|1099184436_1663768413.png""},""createdAt"":""2022-09-23T06:14:43.420Z"",""_id"":""2ac79440-f2c8-4db6-97ac-58de534c6d6c""},{""text"":""Iu2019m new here"",""user"":{""_id"":""617"",""name"":""Abigael Williams"",""avatar"":""|1890095863_1649670083.jpeg""},""createdAt"":""2022-04-11T09:42:37.454Z"",""_id"":""b7f95131-a1f7-4cc4-858b-1688dcdb6a6b""},{""text"":""Hi"",""user"":{""_id"":""617"",""name"":""Abigael Williams"",""avatar"":""|1890095863_1649670083.jpeg""},""createdAt"":""2022-04-11T09:42:25.284Z"",""_id"":""ce8b9590-d354-438a-a55c-2f269c03e7b5""}]"
382,garden on 8,Media One - Al Sufouh - Dubai Media City - Dubai - United Arab E,2022-09-03 00:30:06,25.0898,55.1524,0,55,"[{""text"":""Updated Venue"",""_id"":""676"",""createdAt"":""2022-09-03T07:30:05.695Z"",""user"":{""_id"":""676"",""name"":""Stephany"",""avatar"":""|1971878664_1661276120.png""}}]"
383,Siddharta Lounge by Buddha Bar,Grosvenor House Dubai - Al Emreef St - Dubai Marina - Dubai - Un,0000-00-00 00:00:00,25.0865,55.1434,1,55,
384,Horizon,Le Meridien Mina Seyahi Beach Resort & Marina - Dubai - United A,0000-00-00 00:00:00,25.0922,55.1469,0,55,
385,Jetty Lounge,One&Only Royal Mirage - King Salman Bin Abdulaziz Al Saud St - D,0000-00-00 00:00:00,25.097,55.1506,0,55,
386,Oeno Bar,"Oeno, The Westin Dubai Mina Seyahi Beach Resort & Marina - Dubai",0000-00-00 00:00:00,25.093,55.1488,0,55,
387,Horizon Lounge,"Al Falea Street, Jumeirah Beach - Dubai - United Arab Emirates",0000-00-00 00:00:00,25.0859,55.1414,0,55,
388,Baby Q,"Media One Tower, 43rd Floor - Dubai Media City - Dubai - United ",2022-10-27 03:02:28,25.0898,55.1529,0,55,"[{""text"":""Where is location"",""user"":{""_id"":""954"",""name"":""Aftab"",""avatar"":""|1833063097_1666864732.png""},""createdAt"":""2022-10-27T10:02:26.448Z"",""_id"":""db5c731c-35d7-4247-99e5-7e51d9dd1a71""},{""text"":""Hello"",""user"":{""_id"":""954"",""name"":""Aftab"",""avatar"":""|1833063097_1666864732.png""},""createdAt"":""2022-10-27T10:02:16.860Z"",""_id"":""15ce762d-75d5-4a91-af73-769bb6d18e51""},{""text"":""Updated Venue"",""_id"":""665"",""createdAt"":""2022-09-23T09:04:42.753Z"",""user"":{""_id"":""665"",""name"":""Brenda"",""avatar"":""|2063419226_1653683912.jpeg""}}]"
389,Spike Bar,Emirates Golf Club - Emirates Hills 2 - Dubai - United Arab Emir,0000-00-00 00:00:00,25.0852,55.1599,1,55,
390,caféM,Al Falak St - Al Sufouh - Al Sufouh 2 - Dubai - United Arab Emir,2022-09-22 14:09:16,25.09,55.1525,0,55,"[{""text"":""Updated Venue"",""_id"":""745"",""createdAt"":""2022-09-22T21:09:15.962Z"",""user"":{""_id"":""745"",""name"":""Syed Minhaj "",""avatar"":""|614576653_1663879972.png""}}]"
391,Buddha Bar,Grosvenor House Dubai - Al Emreef St - Dubai - United Arab Emira,0000-00-00 00:00:00,25.086,55.144,0,55,
392,Shades,Le Royal Meridien Beach Resort & Spa - Al Mamsha St - Dubai Mari,0000-00-00 00:00:00,25.0834,55.1402,1,55,
393,Library Bar,"The Ritz-Carlton, Dubai - Jumeirah Beach Residence - Dubai - Uni",2022-04-08 06:54:32,25.0825,55.1374,0,55,"[{""text"":""Katlyn is that you up near the front"",""_id"":""82"",""createdAt"":""2022-04-08T13:54:30.251Z"",""user"":{""_id"":""82"",""name"":""u0421u043eu0444u0438u044f"",""avatar"":""|2058456301_1625746244.jpeg""}},{""text"":""Updated Venue"",""_id"":""519"",""createdAt"":""2022-04-08T13:54:30.246Z"",""user"":{""_id"":""519"",""name"":""Julia"",""avatar"":""|757077779_1643486682.jpeg""}}]"
394,The Shoreditch DXB,The Westin Dubai Mina Seyahi Beach Resort & Marina - Dubai - Uni,2021-12-29 05:00:44,25.0932,55.1493,0,55,"[{""text"":""Updated Venue"",""_id"":""250"",""createdAt"":""2021-12-29T13:00:44.224Z"",""user"":{""_id"":""250"",""name"":""Jason"",""avatar"":""|1714918865_1639986707.png""}}]"
395,Tamanya Terrace,4 Al Falak St - Al Sufouh - Al Sufouh 2 - Dubai - United Arab Em,0000-00-00 00:00:00,25.0938,55.1554,0,55,
396,The Rooftop Terrace,One&Only Royal Mirage - King Salman Bin Abdulaziz Al Saud St - D,0000-00-00 00:00:00,25.0992,55.1537,0,55,
397,Nezesaussi Grill Dubai Marina,"Address Dubai Marina Al Marsa Street, 66, Dubai Marina, 32923 - ",2022-04-08 06:54:31,25.0775,55.1403,0,55,"[{""text"":""horny tonight"",""_id"":""587"",""createdAt"":""2022-04-08T13:54:30.253Z"",""user"":{""_id"":""587"",""name"":""Remi"",""avatar"":""|242868273_1649398039.jpeg""}},{""text"":""Updated Venue"",""_id"":""250"",""createdAt"":""2021-12-29T13:00:22.006Z"",""user"":{""_id"":""250"",""name"":""Jason"",""avatar"":""|1714918865_1639986707.png""}}]"
398,The Back Door,The Walk - Jumeirah Beach Residence - Dubai - United Arab Emirat,0000-00-00 00:00:00,25.08,55.1372,0,55,
399,Hoxton Bar & Urban Eatery,"B1, Armada BlueBay Hotel, Cluster P - Dubai - United Arab Emirat",2022-10-11 09:50:12,25.075,55.1454,1,55,"[{""text"":""Updated Venue"",""_id"":""852"",""createdAt"":""2022-10-11T16:50:10.362Z"",""user"":{""_id"":""852"",""name"":""Fabrice"",""avatar"":""|621763759_1665506429.png""}}]"
400,Baby Q Dubai,Media One Tower 43rd Floor - Dubai Media City - Dubai - United A,2022-09-23 02:04:28,25.09,55.1525,0,55,"[{""text"":""Updated Venue"",""_id"":""665"",""createdAt"":""2022-09-23T09:04:27.943Z"",""user"":{""_id"":""665"",""name"":""Brenda"",""avatar"":""|2063419226_1653683912.jpeg""}},{""text"":""Updated Venue"",""_id"":""745"",""createdAt"":""2022-09-22T21:09:08.433Z"",""user"":{""_id"":""745"",""name"":""Syed Minhaj "",""avatar"":""|614576653_1663879972.png""}}]"
401,Coco Lounge,Media One Hotel - Al Falak St - Dubai - United Arab Emirates,0000-00-00 00:00:00,25.0898,55.1524,0,55,
402,Ginter,InterContinental Dubai Marina - King Salman Bin Abdulaziz Al Sau,2022-11-25 09:38:08,25.0789,55.1379,0,55,"[{""text"":""Updated Venue"",""_id"":""1134"",""createdAt"":""2022-11-25T17:38:06.760Z"",""user"":{""_id"":""1134"",""name"":""Kevser"",""avatar"":""|209829942_1669397551.png""}}]"
403,West Beach Bistro & Sports Lounge,The Walk - Jumeirah Beach Residence - Dubai - United Arab Emirat,0000-00-00 00:00:00,25.0801,55.1369,1,55,
404,Pure Sky Lounge & Dining,Level 35 The Walk - Jumeirah Beach Residence - Dubai - United Ar,2021-12-29 05:00:56,25.0785,55.1348,1,55,"[{""text"":""Updated Venue"",""_id"":""250"",""createdAt"":""2021-12-29T13:00:55.907Z"",""user"":{""_id"":""250"",""name"":""Jason"",""avatar"":""|1714918865_1639986707.png""}}]"
405,Lounge 101,"West Crescent, Palm Jumeirah One&Only The Palm - Dubai - United ",2022-10-16 03:28:22,25.1,55.136,0,55,"[{""text"":""Updated Venue"",""_id"":""889"",""createdAt"":""2022-10-16T10:28:22.177Z"",""user"":{""_id"":""889"",""name"":""Sagar"",""avatar"":""|734799122_1665901474.png""}},{""text"":""Updated Venue"",""_id"":""889"",""createdAt"":""2022-10-16T10:28:03.669Z"",""user"":{""_id"":""889"",""name"":""Sagar"",""avatar"":""|734799122_1665901474.png""}}]"
406,Pitchers Dubai,Armada BlueBay Hotel - Dubai - United Arab Emirates,0000-00-00 00:00:00,25.075,55.1454,0,55,
407,CROWN & LION English Bar,Ground Floor - Byblos Hotel Barsha Heights - Barsha Heights - Du,2022-09-22 14:07:46,25.0975,55.1734,0,55,"[{""text"":""Updated Venue"",""_id"":""745"",""createdAt"":""2022-09-22T21:07:43.549Z"",""user"":{""_id"":""745"",""name"":""Syed Minhaj "",""avatar"":""|614576653_1663879972.png""}},{""text"":""come and scan me ... "",""_id"":""662"",""createdAt"":""2022-08-24T14:07:06.286Z"",""user"":{""_id"":""662"",""name"":""New Player"",""avatar"":""|1352706115_1653638888.jpeg""}}]"
408,The Beach Bar & Grill by Mauro Colagreco,King Salman Bin Abdulaziz Al Saud St - Dubai Marina - Dubai - Un,0000-00-00 00:00:00,25.0988,55.1524,0,55,
409,Urban Bar & Kitchen - UBK,Promenade Level - Cluster A - Jumeirah Lakes Towers - Dubai - Un,2022-10-21 22:04:55,25.066,55.1383,1,55,"[{""text"":""Updated Venue"",""_id"":""918"",""createdAt"":""2022-10-22T05:04:53.812Z"",""user"":{""_id"":""918"",""name"":""Prem anand"",""avatar"":""|845308458_1666235565.png""}},{""text"":""Updated Venue"",""_id"":""852"",""createdAt"":""2022-10-11T16:48:59.049Z"",""user"":{""_id"":""852"",""name"":""Fabrice"",""avatar"":""|621763759_1665506429.png""}},{""text"":""Hello everyone"",""user"":{""_id"":""303"",""name"":""Jenna"",""avatar"":""|589959837_1639817233.jpeg""},""createdAt"":""2022-04-03T06:55:22.402Z"",""_id"":""623ddcd2-7c3d-4bc9-8ad6-a24e765e1e8f""},{""text"":""Updated Venue"",""_id"":""303"",""createdAt"":""2022-04-03T06:52:41.397Z"",""user"":{""_id"":""303"",""name"":""Jenna"",""avatar"":""|589959837_1639817233.jpeg""}}]"
410,Chameleon Club Dubai,"P Level - Byblos Hotel, Barsha Heights Barsha Heights - Barsha H",2022-09-22 14:07:48,25.0975,55.1736,0,55,"[{""text"":""Updated Venue"",""_id"":""745"",""createdAt"":""2022-09-22T21:07:48.438Z"",""user"":{""_id"":""745"",""name"":""Syed Minhaj "",""avatar"":""|614576653_1663879972.png""}},{""text"":""Updated Venue"",""_id"":""676"",""createdAt"":""2022-09-06T09:11:30.399Z"",""user"":{""_id"":""676"",""name"":""Stephany"",""avatar"":""|1971878664_1661276120.png""}}]"
411,Secret Room Dubai | Exclusive Night Club in Dubai at Five Palm J,No. 1 Palm Jumeirah - Dubai - Dubai - Dubai - United Arab Emirat,0000-00-00 00:00:00,25.1038,55.1481,1,55,
412,Amadeus Club,Ground Floor - Marina Byblos Hotel - Dubai Marina - Dubai - Unit,2022-03-26 13:06:39,25.071,55.1348,1,55,"[{""text"":""Updated Venue"",""_id"":""303"",""createdAt"":""2022-03-26T20:06:38.680Z"",""user"":{""_id"":""303"",""name"":""Jenna"",""avatar"":""|589959837_1639817233.jpeg""}}]"
413,Zero Gravity Dubai,"Dubai Marina, Skydive Dubai Drop Zone - King Salman Bin Abdulazi",0000-00-00 00:00:00,25.089,55.1374,2,55,
414,Night Club Dubai سهرات دبي,"2nd Floor, Sofitel JBR Dubai JBR - The Walk - Dubai - United Ara",2022-11-25 23:10:25,25.0754,55.1321,0,55,"[{""text"":""Updated Venue"",""_id"":""1135"",""createdAt"":""2022-11-26T07:10:23.357Z"",""user"":{""_id"":""1135"",""name"":""Maryanne"",""avatar"":""|1821245344_1669446321.png""}},{""text"":""Updated Venue"",""_id"":""983"",""createdAt"":""2022-11-02T14:34:54.869Z"",""user"":{""_id"":""983"",""name"":""Timothy "",""avatar"":""|824524227_1667397773.png""}},{""text"":""Updated Venue"",""_id"":""745"",""createdAt"":""2022-09-22T20:58:36.579Z"",""user"":{""_id"":""745"",""name"":""Syed Minhaj "",""avatar"":""|614576653_1663879972.png""}}]"
415,Ashwin,35WH+29P - Barsha Heights - Dubai - United Arab Emirates,2022-09-06 08:14:21,25.0951,55.1785,1,55,"[{""text"":""Updated Venue"",""_id"":""689"",""createdAt"":""2022-09-06T15:14:19.133Z"",""user"":{""_id"":""689"",""name"":""Andrew"",""avatar"":""|2070020410_1662099740.png""}},{""text"":""here ... Ashwin"",""_id"":""679"",""createdAt"":""2022-09-06T15:14:19.154Z"",""user"":{""_id"":""679"",""name"":""Falon"",""avatar"":""|877971528_1661280906.png""}},{""text"":""Updated Venue"",""_id"":""676"",""createdAt"":""2022-09-06T02:56:42.121Z"",""user"":{""_id"":""676"",""name"":""Stephany"",""avatar"":""|1971878664_1661276120.png""}},{""text"":""Updated Venue"",""_id"":""676"",""createdAt"":""2022-09-05T19:57:29.952Z"",""user"":{""_id"":""676"",""name"":""Stephany"",""avatar"":""|1971878664_1661276120.png""}}]"
416,HipHop Karaoke Dubai,Tribeca - Dubai - United Arab Emirates,2022-04-03 00:16:01,25.0732,55.1303,0,55,"[{""text"":""Updated Venue"",""_id"":""250"",""createdAt"":""2022-04-03T07:16:01.165Z"",""user"":{""_id"":""250"",""name"":""Jason"",""avatar"":""|2140959549_1643136149.jpeg""}}]"
417,Analog Room,Behind IBIS Al Barsha Hotel - Sheikh Zayed Rd - Dubai - United A,2022-04-19 13:09:03,25.1082,55.1837,0,55,"[{""text"":""Updated Venue"",""_id"":""624"",""createdAt"":""2022-04-19T20:09:02.279Z"",""user"":{""_id"":""624"",""name"":""Jessica"",""avatar"":""|347020213_1650368654.jpeg""}},{""text"":""Updated Venue"",""_id"":""515"",""createdAt"":""2022-03-29T19:06:19.965Z"",""user"":{""_id"":""515"",""name"":""Joel"",""avatar"":""|655280619_1643398185.jpeg""}},{""text"":""who wants to buy my instagram"",""_id"":""440"",""createdAt"":""2022-03-27T15:26:42.091Z"",""user"":{""_id"":""440"",""name"":""Heldet"",""avatar"":""|1825680342_1643018175.jpeg""}},{""text"":""Updated Venue"",""_id"":""479"",""createdAt"":""2022-03-19T17:07:10.777Z"",""user"":{""_id"":""479"",""name"":""Lucille"",""avatar"":""|1458210382_1643148753.jpeg""}}]"
419,One Dubai,Unnamed Road - Dubai - United Arab Emirates,0000-00-00 00:00:00,25.1128,55.1418,1,55,
420,La Baie Lounge,The Ritz-Carlton Dubai - The Walk - Jumeirah Beach Residence - D,0000-00-00 00:00:00,25.083,55.1373,0,55,
421,PLATINUM CLUB DUBAI,media rotana - Dubai - United Arab Emirates,2022-09-05 20:00:15,25.1,55.1793,0,55,"[{""text"":""Updated Venue"",""_id"":""676"",""createdAt"":""2022-09-06T03:00:14.428Z"",""user"":{""_id"":""676"",""name"":""Stephany"",""avatar"":""|1971878664_1661276120.png""}},{""text"":""where are you ??"",""_id"":""505"",""createdAt"":""2022-08-24T14:07:06.282Z"",""user"":{""_id"":""505"",""name"":""u13d2u13a7u13e6u13d5u13a5"",""avatar"":""|922906808_1643231901.jpeg""}},{""text"":""Updated Venue"",""_id"":""577"",""createdAt"":""2022-04-11T15:53:49.097Z"",""user"":{""_id"":""577"",""name"":""Stephany"",""avatar"":""|244026430_1649673035.jpeg""}}]"
422,Bodega Garage - Filipino Bar,Sheikh Zayed Rd - Al Barsha - Al Barsha 1 - Dubai - United Arab ,2022-04-19 12:10:53,25.1163,55.194,1,55,"[{""text"":""Updated Venue"",""_id"":""624"",""createdAt"":""2022-04-19T19:10:51.553Z"",""user"":{""_id"":""624"",""name"":""Jessica"",""avatar"":""|347020213_1650368654.jpeg""}},{""text"":""Updated Venue"",""_id"":""553"",""createdAt"":""2022-04-09T07:16:01.038Z"",""user"":{""_id"":""553"",""name"":""Nilam"",""avatar"":""|289659432_1647719517.jpeg""}},{""text"":""try and find me, im at the back "",""_id"":""485"",""createdAt"":""2022-04-09T07:16:01.046Z"",""user"":{""_id"":""485"",""name"":""Ju00falia"",""avatar"":""|1616441892_1643152851.jpeg""}},{""text"":""Updated Venue"",""_id"":""529"",""createdAt"":""2022-04-02T11:10:51.645Z"",""user"":{""_id"":""529"",""name"":""Cakir"",""avatar"":""|937952888_1643662442.jpeg""}}]"
423,Emperor Night Club,"Al Barsha Road, Barsha 1 Behind Mall Of The Emirates Elite Byblo",2022-04-09 06:45:23,25.1141,55.2001,0,55,"[{""text"":""We have created a new beach club event everyone"",""user"":{""_id"":""303"",""name"":""Jenna"",""avatar"":""|589959837_1639817233.jpeg""},""createdAt"":""2022-04-09T13:45:22.319Z"",""_id"":""98c389fb-fbe6-43cd-8045-68e16e4d21ba""},{""text"":""Welcome Callum"",""user"":{""_id"":""303"",""name"":""Jenna"",""avatar"":""|589959837_1639817233.jpeg""},""createdAt"":""2022-04-09T13:45:05.689Z"",""_id"":""7d0c4a56-c708-4023-8196-4b37908f81ad""},{""text"":""Updated Venue"",""_id"":""205"",""createdAt"":""2022-03-30T02:57:54.621Z"",""user"":{""_id"":""205"",""name"":""Callum"",""avatar"":""|1141643216_1637940927.jpeg""}},{""text"":""i need the prize money, come and find me"",""_id"":""529"",""createdAt"":""2022-03-27T15:26:42.097Z"",""user"":{""_id"":""529"",""name"":""Cakir"",""avatar"":""|937952888_1643662442.jpeg""}}]"
424,Cash Club Dubai,Ibn Battuta Gate - Jebel Ali Village - Dubai - United Arab Emira,2022-12-08 12:04:20,25.0418,55.1154,1,55,"[{""text"":""Updated Venue"",""_id"":""1174"",""createdAt"":""2022-12-08T20:04:20.165Z"",""user"":{""_id"":""1174"",""name"":""Anastasiia "",""avatar"":""|855936427_1670529626.png""}},{""text"":""Updated Venue"",""_id"":""724"",""createdAt"":""2022-09-19T13:21:55.270Z"",""user"":{""_id"":""724"",""name"":""Chandru"",""avatar"":""|1442947217_1663593636.png""}},{""text"":""Updated Venue"",""_id"":""724"",""createdAt"":""2022-09-19T13:21:51.255Z"",""user"":{""_id"":""724"",""name"":""Chandru"",""avatar"":""|1442947217_1663593636.png""}},{""text"":""Updated Venue"",""_id"":""250"",""createdAt"":""2022-03-26T19:09:13.439Z"",""user"":{""_id"":""250"",""name"":""Jason"",""avatar"":""|2140959549_1643136149.jpeg""}}]"
425,Vogue Saturdays,Dubai Marina - Dubai - United Arab Emirates,0000-00-00 00:00:00,25.0794,55.1349,0,55,
426,Mirage Dubai,"Low Ground Floor, Waldorf Astoria Dubai Palm Jumeirah - Crescent",0000-00-00 00:00:00,25.1345,55.1504,1,55,
427,1OAK,JW Marriott Marquis Hotel - Dubai - United Arab Emirates,2022-10-12 09:33:14,25.1857,55.2573,1,55,"[{""text"":""H"",""user"":{""_id"":""861"",""name"":""Rere"",""avatar"":""|1121141214_1665592314.png""},""createdAt"":""2022-10-12T16:33:12.988Z"",""_id"":""edbb4eb3-580c-48bd-a4fe-26c0e3b7b12b""},{""text"":""Updated Venue"",""_id"":""861"",""createdAt"":""2022-10-12T16:33:01.054Z"",""user"":{""_id"":""861"",""name"":""Rere"",""avatar"":""|1121141214_1665592314.png""}},{""text"":""Updated Venue"",""_id"":""250"",""createdAt"":""2021-12-29T12:53:44.087Z"",""user"":{""_id"":""250"",""name"":""Jason"",""avatar"":""|1714918865_1639986707.png""}}]"
428,Emirates Golf Club,"17/2, Al Naseem street Emirates Golf Club, Al Thanyah 3, Hadaeq ",0000-00-00 00:00:00,25.0853,55.1598,0,55,
429,Fusion Club,"Cassells Al Barsha hotel, near Sharaf DG Metro Station - Dubai -",2022-09-22 14:07:57,25.1136,55.1914,0,55,"[{""text"":""Updated Venue"",""_id"":""745"",""createdAt"":""2022-09-22T21:07:56.840Z"",""user"":{""_id"":""745"",""name"":""Syed Minhaj "",""avatar"":""|614576653_1663879972.png""}},{""text"":""Updated Venue"",""_id"":""577"",""createdAt"":""2022-04-11T15:53:35.937Z"",""user"":{""_id"":""577"",""name"":""Stephany"",""avatar"":""|244026430_1649673035.jpeg""}},{""text"":""Jeremy i think i see you"",""_id"":""300"",""createdAt"":""2022-03-29T19:06:19.985Z"",""user"":{""_id"":""300"",""name"":""Fallon"",""avatar"":""|1728753487_1639817164.jpeg""}},{""text"":""im sitting at the bar "",""_id"":""476"",""createdAt"":""2022-03-29T18:44:22.978Z"",""user"":{""_id"":""476"",""name"":""Rachel"",""avatar"":""|1696209853_1643147883.jpeg""}}]"
430,Sensation Club - One of the Best Nightclubs in Dubai,"Crowne Plaza Hotel, Sheikh Zayed Rd - Dubai - United Arab Emirat",0000-00-00 00:00:00,25.2201,55.2801,0,55,
431,Mantis Dubai,Emirates Financial Towers - Podium Level - Dubai - United Arab E,2022-11-17 00:34:46,25.2086,55.2766,0,55,"[{""text"":""Updated Venue"",""_id"":""1092"",""createdAt"":""2022-11-17T08:34:45.595Z"",""user"":{""_id"":""1092"",""name"":""Gael"",""avatar"":""|2076730253_1668673678.png""}}]"
432,Rock Bottom Cafe,"1st Floor, Ramee Rose Hotel Al - Dubai - United Arab Emirates",2022-09-22 14:07:53,25.0983,55.1796,0,55,"[{""text"":""Updated Venue"",""_id"":""745"",""createdAt"":""2022-09-22T21:07:53.332Z"",""user"":{""_id"":""745"",""name"":""Syed Minhaj "",""avatar"":""|614576653_1663879972.png""}},{""text"":""hey"",""_id"":""554"",""createdAt"":""2022-09-06T15:14:19.151Z"",""user"":{""_id"":""554"",""name"":""Nimi"",""avatar"":""|1903257575_1647721091.jpeg""}},{""text"":""Updated Venue"",""_id"":""665"",""createdAt"":""2022-09-06T08:38:42.737Z"",""user"":{""_id"":""665"",""name"":""Brenda"",""avatar"":""|2063419226_1653683912.jpeg""}},{""text"":""Updated Venue"",""_id"":""676"",""createdAt"":""2022-09-06T02:56:46.386Z"",""user"":{""_id"":""676"",""name"":""Stephany"",""avatar"":""|1971878664_1661276120.png""}}]"
433,Cove Beach Club,"Caesars Palace Dubai, Bluewaters Island - Dubai - United Arab Em",2022-09-02 04:18:52,25.0815,55.1209,0,55,"[{""text"":""Updated Venue"",""_id"":""676"",""createdAt"":""2022-09-02T11:18:51.171Z"",""user"":{""_id"":""676"",""name"":""Stephany"",""avatar"":""|1971878664_1661276120.png""}},{""text"":""Updated Venue"",""_id"":""250"",""createdAt"":""2022-04-03T07:16:13.032Z"",""user"":{""_id"":""250"",""name"":""Jason"",""avatar"":""|2140959549_1643136149.jpeg""}}]"
434,Boudoir,Dubai Marine Beach Resort & Spa - Jumeirah St - Dubai - United A,0000-00-00 00:00:00,25.2341,55.2626,1,55,
435,Club Seven,Opp Burjuman Centre - Sheikh Khalifa Bin Zayed St - Dubai - Unit,2022-11-24 04:11:03,25.2493,55.3015,1,55,"[{""text"":""Updated Venue"",""_id"":""1125"",""createdAt"":""2022-11-24T12:11:01.804Z"",""user"":{""_id"":""1125"",""name"":""SAM"",""avatar"":""|388344202_1669290740.png""}},{""text"":""Updated Venue"",""_id"":""755"",""createdAt"":""2022-10-11T21:13:51.510Z"",""user"":{""_id"":""755"",""name"":""Mohammed "",""avatar"":""|36891130_1664064498.png""}},{""text"":""Hiii"",""user"":{""_id"":""724"",""name"":""Chandru"",""avatar"":""|1442947217_1663593636.png""},""createdAt"":""2022-10-10T16:22:08.096Z"",""_id"":""28a09d28-9a58-4105-aff7-375024837b0e""},{""text"":""Hi"",""user"":{""_id"":""788"",""name"":""JAWAHAR MURUGESAN"",""avatar"":""|1733016529_1664637855.png""},""createdAt"":""2022-10-01T15:26:14.601Z"",""_id"":""d7b71185-d82c-47ab-ae11-ce109386057f""}]"
436,Toy Room Dubai,"Al Meydan Road Meydan Racecourse, Grandstand - Dubai - United Ar",2022-09-03 01:01:58,25.1578,55.3006,0,55,"[{""text"":""Updated Venue"",""_id"":""676"",""createdAt"":""2022-09-03T08:01:57.915Z"",""user"":{""_id"":""676"",""name"":""Stephany"",""avatar"":""|1971878664_1661276120.png""}}]"
437,Drai's Dubai | Nightclub Dubai,Meydan Racecourse Grandstand - Dubai - United Arab Emirates,0000-00-00 00:00:00,25.1584,55.3007,1,55,
438,Dubai Golf Office,Emirates Golf Club - Emirates Hills 2 - Dubai - United Arab Emir,0000-00-00 00:00:00,25.0853,55.1581,0,55,
439,Muscovites Night Club & Lounge,Canvas Hotel Dubai - Street # 23 Kuwait St - Dubai - United Arab,0000-00-00 00:00:00,25.2555,55.2855,0,55,
440,W club,Al Asayel St - Business Bay - Dubai - United Arab Emirates,2022-09-23 09:59:47,25.1942,55.2895,0,55,"[{""text"":""Updated Venue"",""_id"":""665"",""createdAt"":""2022-09-23T16:59:45.762Z"",""user"":{""_id"":""665"",""name"":""Brenda"",""avatar"":""|2063419226_1653683912.jpeg""}},{""text"":""Updated Venue"",""_id"":""665"",""createdAt"":""2022-09-23T08:36:21.357Z"",""user"":{""_id"":""665"",""name"":""Brenda"",""avatar"":""|2063419226_1653683912.jpeg""}},{""text"":""Updated Venue"",""_id"":""665"",""createdAt"":""2022-09-06T08:44:04.515Z"",""user"":{""_id"":""665"",""name"":""Brenda"",""avatar"":""|2063419226_1653683912.jpeg""}}]"
441,Atelier M,"Marina Mall - Floor 7/7M, Pier 7, next to - Dubai - United Arab ",2022-11-08 09:22:10,25.0762,55.1389,0,55,"[{""text"":""Updated Venue"",""_id"":""976"",""createdAt"":""2022-11-08T17:22:09.528Z"",""user"":{""_id"":""976"",""name"":""Omar"",""avatar"":""|1458037841_1667328341.png""}},{""text"":""Updated Venue"",""_id"":""976"",""createdAt"":""2022-11-08T17:21:51.885Z"",""user"":{""_id"":""976"",""name"":""Omar"",""avatar"":""|1458037841_1667328341.png""}},{""text"":""Updated Venue"",""_id"":""250"",""createdAt"":""2021-12-29T13:00:30.344Z"",""user"":{""_id"":""250"",""name"":""Jason"",""avatar"":""|1714918865_1639986707.png""}},{""text"":""Updated Venue"",""_id"":""250"",""createdAt"":""2021-12-29T12:53:58.266Z"",""user"":{""_id"":""250"",""name"":""Jason"",""avatar"":""|1714918865_1639986707.png""}}]"
442,Spree The Club,62 Khalid Bin Al Waleed Rd - Al Raffa - Dubai - United Arab Emir,2022-05-09 21:02:48,25.2592,55.2912,0,55,"[{""text"":""hello"",""user"":{""_id"":""620"",""name"":""Basil Nellissery"",""avatar"":""|372957990_1650300772.jpeg""},""createdAt"":""2022-05-10T04:02:47.342Z"",""_id"":""94b6ace1-8f06-4249-b8fd-b018c043c1d7""},{""text"":""hi"",""user"":{""_id"":""620"",""name"":""Basil Nellissery"",""avatar"":""|372957990_1650300772.jpeg""},""createdAt"":""2022-05-06T14:27:35.285Z"",""_id"":""49815724-3985-4bc4-bf48-2bd4ce0afd3e""},{""text"":""Hi"",""user"":{""_id"":""425"",""name"":""Mohammad nadeem"",""avatar"":""|""},""createdAt"":""2022-01-21T10:52:01.851Z"",""_id"":""4e7d8ee9-918e-4407-bd96-64b4a925a22f""}]"
443,Gotha Club Dubai,Radisson Blu Dubai Waterfront Hotel - Dubai - United Arab Emirat,0000-00-00 00:00:00,25.1869,55.2675,1,55,
444,Havana Social Club,Caesars Palace Dubai - Bluewaters Island - Dubai - United Arab E,2022-11-24 09:31:02,25.081,55.1205,1,55,"[{""text"":""Updated Venue"",""_id"":""1129"",""createdAt"":""2022-11-24T17:31:01.306Z"",""user"":{""_id"":""1129"",""name"":""Ujjwal"",""avatar"":""|1645251546_1669310885.png""}}]"
445,Capital Club Dubai,"Gate Village, Building 3 - Building #3 - Dubai - United Arab Emi",0000-00-00 00:00:00,25.2136,55.2823,1,55,
446,The Showclub Dubai,Trade Centre - Trade Centre 1 - Dubai - United Arab Emirates,2022-10-01 09:32:47,25.2261,55.2833,1,55,"[{""text"":""Hey guys ud83dude0a"",""user"":{""_id"":""790"",""name"":""FOYSAL"",""avatar"":""|586282991_1664641722.png""},""createdAt"":""2022-10-01T16:32:45.900Z"",""_id"":""553b8a27-e32e-47a2-8ef0-85a63dbbdccd""}]"
447,Jaguar's Night Club,10 19 A St - Al Mankhool - Dubai - United Arab Emirates,2022-10-03 08:58:57,25.2513,55.2927,1,55,"[{""text"":""Updated Venue"",""_id"":""811"",""createdAt"":""2022-10-03T15:58:56.435Z"",""user"":{""_id"":""811"",""name"":""Priyansh Awadhiya"",""avatar"":""|2128393435_1664812327.png""}},{""text"":""Hi"",""user"":{""_id"":""811"",""name"":""Priyansh Awadhiya"",""avatar"":""|2128393435_1664812327.png""},""createdAt"":""2022-10-03T15:55:55.757Z"",""_id"":""1e300562-125c-436b-a9f9-1705dfea7bd5""}]"
448,Armani/Prive,"Burj Khalifa - Lobby Level, Armani Hotel - Dubai - United Arab E",0000-00-00 00:00:00,25.1976,55.2743,0,55,
449,Dancer Club Solitiare,67CJ+MC7 - Trade Centre - Trade Centre 1 - Dubai - United Arab E,0000-00-00 00:00:00,25.2217,55.281,0,55,
450,Bla Bla Beach Club,5101 Messer Street Beach by Meraas Mall - Jumeirah Beach Residen,2022-11-09 04:16:45,25.0753,55.1295,0,55,"[{""text"":""Updated Venue"",""_id"":""940"",""createdAt"":""2022-11-09T12:16:44.731Z"",""user"":{""_id"":""940"",""name"":""Joshua"",""avatar"":""|69006893_1667996063.png""}},{""text"":""Please make sure you are ready to have fun - Iu2019ll explain in more detail in person."",""user"":{""_id"":""205"",""name"":""Callum"",""avatar"":""|1141643216_1637940927.jpeg""},""createdAt"":""2022-10-29T14:49:10.307Z"",""_id"":""dc1256a1-d965-4bba-82fe-b53cea74694f""},{""text"":""Iu2019ll see everyone outside bla bla at 8pm - meet outside the entrance"",""user"":{""_id"":""205"",""name"":""Callum"",""avatar"":""|1141643216_1637940927.jpeg""},""createdAt"":""2022-10-29T14:48:18.260Z"",""_id"":""a649c10a-f999-4d61-b7fc-664c0e8ac9bc""},{""text"":""Updated Venue"",""_id"":""956"",""createdAt"":""2022-10-27T10:26:38.834Z"",""user"":{""_id"":""956"",""name"":""Sameer "",""avatar"":""|1536608087_1666866143.png""}}]"
451,Pink Freud Kyiv,"Nyzhnii Val St, 19, Kyiv, Ukraine, 02000",0000-00-00 00:00:00,50.4657,30.5111,0,55,
452,b-hush rooftop lounge bar,"Velyka Zhytomyrska St, 2А, Kyiv, Ukraine, 02000",0000-00-00 00:00:00,50.4557,30.5194,0,55,
453,N::B Cocktails Bar,"Mykhailivs'ka St, 13, Kyiv, Ukraine, 01001",0000-00-00 00:00:00,50.4532,30.5218,0,55,
454,Barman Dictat,"Khreschatyk St, 44Б, Kyiv, Ukraine, 02000",0000-00-00 00:00:00,50.4438,30.5196,0,55,
455,Loggerhead,"Tarasa Shevchenko Blvd, 1, Kyiv, Ukraine, 01004",0000-00-00 00:00:00,50.4422,30.5194,0,55,
456,Blues Bar,"Mykhailivs'ka St, 24А, Kyiv, Ukraine, 02000",0000-00-00 00:00:00,50.4546,30.5211,0,55,
457,The Bar,"Арена Сіті, Velyka Vasylkivska St, 5, Kyiv, Ukraine, 02000",0000-00-00 00:00:00,50.4411,30.5213,0,55,
458,Bar/13,"02000, Reitarska St, 21/13, Kyiv, Ukraine",0000-00-00 00:00:00,50.4517,30.511,0,55,
459,O'Brien's,"Mykhailivs'ka St, 17a, Kyiv, Ukraine, 02000",0000-00-00 00:00:00,50.4538,30.5213,0,55,
460,32 JazzClub,"32, Vozdvyzhens'ka St, Kyiv, Ukraine, 04071",0000-00-00 00:00:00,50.46,30.5114,0,55,
461,Old Bar,"Velyka Vasylkivska St, 20а, Kyiv, Ukraine, 02000",0000-00-00 00:00:00,50.4399,30.5171,0,55,
462,Drunk cherry,"Khreschatyk St, 21, Kyiv, Ukraine, 01001",0000-00-00 00:00:00,50.4464,30.5225,0,55,
463,Parovoz Speak Easy,"02000, Velyka Vasylkivska St, 19, Kyiv, Ukraine",0000-00-00 00:00:00,50.4396,30.5182,0,55,
464,Bar on 8,"Ally Tarasovoi St, 5, Kyiv, Ukraine, 01001",0000-00-00 00:00:00,50.4531,30.5182,0,55,
465,AM Bar,"Velyka Vasylkivska St, 8А, Kyiv, Ukraine, 02000",0000-00-00 00:00:00,50.4415,30.5187,0,55,
466,PR Bar,"Petra Sahaidachnoho St, 6а, Kyiv, Ukraine, 04070",0000-00-00 00:00:00,50.4597,30.5241,0,55,
467,Grails Bar,"Mezhyhirska St, 22, Kyiv, Ukraine, 02000",0000-00-00 00:00:00,50.4682,30.5137,0,55,
468,DoskaBar,"Prorizna St, 21, Kyiv, Ukraine, 02000",0000-00-00 00:00:00,50.4486,30.5163,0,55,
469,ProRock Pub,"Pushkinska St, 32, Kyiv, Ukraine, 01024",0000-00-00 00:00:00,50.4415,30.5164,0,55,
470,Win Bar,"Khoryva St, 16/7, Kyiv, Ukraine, 04071",0000-00-00 00:00:00,50.4664,30.5159,0,55,
471,Andrew's Irish Pub,"Метро, улица Константиновская, Контрактова площа, 22/17, Kyiv, U",0000-00-00 00:00:00,50.4677,30.5112,0,55,
472,Tom Sour,"Sofiivs'ka St, 6, Kyiv, Ukraine, 02000",0000-00-00 00:00:00,50.4516,30.5208,0,55,
473,John Bull Pub,"Saksahanskoho St, 36, Kyiv, Ukraine, 01033",0000-00-00 00:00:00,50.4361,30.5108,0,55,
474,Who&Why? Drinkery,"Yaroslaviv Val St, 21а/20, Kyiv, Ukraine, 02000",0000-00-00 00:00:00,50.4523,30.5081,0,55,
475,HYPE bar,"Ivana Franka St, 16/2, Kyiv, Ukraine, 01030",0000-00-00 00:00:00,50.4492,30.5089,0,55,
476,Sklad,"Bessarabs'ka Square, 2, Kyiv, Ukraine, 01004",0000-00-00 00:00:00,50.4422,30.5212,0,55,
477,H Bar,"Tarasa Shevchenko Blvd, 30, Kyiv, Ukraine, 01030",0000-00-00 00:00:00,50.4454,30.5047,0,55,
478,Barbara Bar,"Sichovykh Striltsiv St, 37-41, Kyiv, Ukraine, 04053",0000-00-00 00:00:00,50.4561,30.4969,0,55,
479,Gnezdo,"Andriivs'kyi descent, 21, Kyiv, Ukraine, 04070",0000-00-00 00:00:00,50.4598,30.5171,0,55,
480,Patrik Pab,"Lavrska St, 6, Kyiv, Ukraine, 01010",0000-00-00 00:00:00,50.4373,30.5523,0,55,
481,Friends & Lovers Bar,"Yaroslaviv Val St, 9, Kyiv, Ukraine, 01034",0000-00-00 00:00:00,50.4503,30.5107,0,55,
482,Copper Pub,"Mykhailivs'ka St, буд.2, Kyiv, Ukraine, 01001",0000-00-00 00:00:00,50.4516,30.5227,0,55,
483,Hitchcook,"ТРЦ Gulliver, Sportyvna Square, 1а, 7 поверх, Kyiv, Ukraine, 020",0000-00-00 00:00:00,50.4389,30.5234,0,55,
484,Палата №6,"Bulvarno-Kudriavska St, 31А, Kyiv, Ukraine, 01054",0000-00-00 00:00:00,50.4508,30.4981,0,55,
485,Question Bar - gastro lounge bar in Kiev,"Shota Rustaveli St, 19, Kyiv, Ukraine, 01001",0000-00-00 00:00:00,50.4384,30.5195,0,55,
486,Par Bar 2,"Eleven, Solomianska St, 11, Kyiv, Ukraine, 03110",2021-12-29 04:24:26,50.4269,30.4767,0,55,"[{""text"":""i dont see anyone, so crowded"",""_id"":""357"",""createdAt"":""2021-12-29T12:24:26.355Z"",""user"":{""_id"":""357"",""name"":""Giuliano"",""avatar"":""|2069008302_1639837958.jpeg""}}]"
487,Hookah Bar Parnik,"Antonovycha St, 1, Kyiv, Ukraine, 01004",0000-00-00 00:00:00,50.4395,30.514,0,55,
488,Hendrick's bar,"Bohdana Khmel'nyts'koho St, 42, Kyiv, Ukraine, 02000",2021-12-29 04:24:27,50.4471,30.5082,0,55,"[{""text"":""Updated Venue"",""_id"":""340"",""createdAt"":""2021-12-29T12:24:26.346Z"",""user"":{""_id"":""340"",""name"":""Natalia"",""avatar"":""|2059815017_1639820939.jpeg""}}]"
489,Wood You Like Bar,"Mezhyhirska St, 24, Kyiv, Ukraine, 04070",2022-06-01 03:08:02,50.4684,30.5134,0,55,"[{""text"":""Updated Venue"",""_id"":""205"",""createdAt"":""2022-06-01T10:08:01.588Z"",""user"":{""_id"":""205"",""name"":""Callum"",""avatar"":""|1141643216_1637940927.jpeg""}},{""text"":""Updated Venue"",""_id"":""205"",""createdAt"":""2022-06-01T09:36:25.789Z"",""user"":{""_id"":""205"",""name"":""Callum"",""avatar"":""|1141643216_1637940927.jpeg""}}]"
490,the cinematographer’s party,"Velyka Zhytomyrska St, 34, Kyiv, Ukraine, 02000",0000-00-00 00:00:00,50.4554,30.5093,0,55,
491,Caribbean Club,"Symona Petlyury St, 4, Kyiv, Ukraine, 01032",0000-00-00 00:00:00,50.445,30.4993,0,55,
492,D.Fleur Night Club,"Mykhaila Hrushevskoho St, 3, Kyiv, Ukraine, 01001",0000-00-00 00:00:00,50.4514,30.5337,0,55,
493,Club Rio,"Bohdana Khmel'nyts'koho St, 30/10, Kyiv, Ukraine, 02000",0000-00-00 00:00:00,50.4467,30.5111,0,55,
494,River Port,"Nyzhnii Val St, 67, Kyiv, Ukraine, 04071",0000-00-00 00:00:00,50.4729,30.5219,0,55,
495,FIFTY. Hip-Hop & R'n'B Club,"Antonovycha St, 50, Kyiv, Ukraine, 01030",0000-00-00 00:00:00,50.4325,30.5132,0,55,
496,Park Dali,"Parkova Rd, 16, Kyiv, Ukraine, 02000",0000-00-00 00:00:00,50.4514,30.538,0,55,
497,Disco Radio Hall,"Stepana Bandery Ave, 32, Kyiv, Ukraine, 02000",0000-00-00 00:00:00,50.4864,30.5335,0,55,
498,Night club Star Rhino at Podol,"Verkhnii Val St, 66, Kyiv, Ukraine, 04071",0000-00-00 00:00:00,50.4708,30.5199,0,55,
499,Paradise Cabaret: Стриптиз клуб (striptease club),"Premier Palace Hotel, 8 floor, Pushkinska St, 29, Kyiv, Ukraine,",0000-00-00 00:00:00,50.4423,30.5174,0,55,
500,Saxon,"Mykhaila Maksymovycha St, 4, Kyiv, Ukraine, 02000",0000-00-00 00:00:00,50.3933,30.4809,0,55,
501,Стриптиз клуб Penthouse,"Velyka Vasylkivska St, 58, Kyiv, Ukraine, 02000",2021-12-29 04:49:23,50.4341,30.5157,0,55,"[{""text"":""Updated Venue"",""_id"":""250"",""createdAt"":""2021-12-29T12:49:23.187Z"",""user"":{""_id"":""250"",""name"":""Jason"",""avatar"":""|1714918865_1639986707.png""}}]"
502,Forsage,"51A, Harmatna St, Kyiv, Ukraine, 03058",0000-00-00 00:00:00,50.4394,30.4347,0,55,
503,Tootsie Karaoke Club,"Bohdana Khmel'nyts'koho St, 30/10, Kyiv, Ukraine, 02000",0000-00-00 00:00:00,50.4466,30.511,0,55,
504,Skybar,"Velyka Vasylkivska St, 5, Kyiv, Ukraine, 02000",0000-00-00 00:00:00,50.4412,30.5203,0,55,
505,Heaven,"Borysa Hrinchenka St, 7, Kyiv, Ukraine, 02000",0000-00-00 00:00:00,50.4495,30.5205,0,55,
506,Princess Men’s Club | Luxury strip club | Gentlemen’s club | Kyi,"Khreschatyk St, 14, Kyiv, Ukraine, 01001",0000-00-00 00:00:00,50.4514,30.5252,0,55,
507,Harem Men's Club Kyiv,"Velyka Vasylkivska St, 5, 6 поверх, Kyiv, Ukraine, 01008",0000-00-00 00:00:00,50.4411,30.5204,0,55,
508,SLUHI,"Velyka Vasylkivska St, 72, Kyiv, Ukraine, 03150",0000-00-00 00:00:00,50.4322,30.5144,0,55,
509,Scarlette,"Hospitalna St, 12, Kyiv, Ukraine, 01023",0000-00-00 00:00:00,50.4361,30.5253,0,55,
510,Men's Club 007,"Petra Sahaidachnoho St, 8, Kyiv, Ukraine, 02000",0000-00-00 00:00:00,50.46,30.5236,0,55,
511,Burlesque — Strip Club | Стрип клуб,"Velyka Vasylkivska St, 5, Kyiv, Ukraine, 01001",0000-00-00 00:00:00,50.4411,30.5204,0,55,
512,Nightclub Star Rhino at Solmenka,"Maksyma Kryvonosa St, 27, Kyiv, Ukraine, 03037",0000-00-00 00:00:00,50.4229,30.4693,0,55,
514,Fifty Beach Club,"Brovarskyi Ave, 5-м, Kyiv, Ukraine, 02000",0000-00-00 00:00:00,50.4529,30.5719,0,55,
515,Dolls,"Velyka Vasylkivska St, 57/3, Kyiv, Ukraine, 02000",0000-00-00 00:00:00,50.4309,30.5164,0,55,
516,Club BAR Smokey,"Velyka Vasylkivska St, 55, Kyiv, Ukraine, 02000",0000-00-00 00:00:00,50.4318,30.5167,0,55,
517,ICE CLUB,"Muzeinyi Ln, 10, Kyiv, Ukraine, 02000",0000-00-00 00:00:00,50.449,30.5303,0,55,
518,Stryp Klub Milenium,"Khreschatyk St, 1/2, Kyiv, Ukraine, 01001",0000-00-00 00:00:00,50.4515,30.527,0,55,
520,CLOSER,"Nyzhnoiurkivska St, 31, Kyiv, Ukraine, 02000",0000-00-00 00:00:00,50.4661,30.4999,0,55,
521,Volume Club,"26/2, Harmatna St, Kyiv, Ukraine, 02000",0000-00-00 00:00:00,50.4473,30.4315,0,55,
522,Mint Rhino strip club,"Velyka Vasylkivska St, 111, Kyiv, Ukraine, 03150",0000-00-00 00:00:00,50.4196,30.5219,0,55,
523,Device Club,"Bohdana Khmel'nyts'koho St, 31/27, Kyiv, Ukraine, 03115",0000-00-00 00:00:00,50.4466,30.5088,0,55,
524,Queen Country Club - загородный комплекс.,"улица Обуховское шоссе, 55, Kozyn, Kiev Oblast, Ukraine, 08711",0000-00-00 00:00:00,50.2229,30.6463,1,55,
525,Bora Bora by Skybar,"Bora Bora by Skybar, Гидропарк пляж, молодежный, Kyiv, Ukraine, ",0000-00-00 00:00:00,50.4518,30.572,0,55,
526,Kiev Swing Dance Club ТАНЦЕВАЛЬНЫЙ КЛУБ,"Mykhaila Hrushevskoho St, 30/1, Kyiv, Ukraine, 01021",0000-00-00 00:00:00,50.4449,30.5397,0,55,
527,Караоке Old London Club,"Danyla Shcherbakivskoho St, 52, Kyiv, Ukraine, 02000",0000-00-00 00:00:00,50.471,30.4063,1,55,
528,TAO Event Hall,"Baseina St, 2А, Kyiv, Ukraine, 02000",0000-00-00 00:00:00,50.4417,30.5216,0,55,
529,Kyiv Sport Club,"Druzhby Narodiv Blvd, 5, Kyiv, Ukraine, 01042",0000-00-00 00:00:00,50.4125,30.5298,0,55,
530,Secret Room - Princess,"Khreschatyk St, 14, Kyiv, Ukraine, 01001",0000-00-00 00:00:00,50.4514,30.5252,0,55,
571,Pubcrawl Group Dubai,,2022-04-07 16:18:02,25.1832,55.2729,1,55,"[{""text"":""Updated Venue"",""_id"":""599"",""createdAt"":""2022-04-07T23:17:59.080Z"",""user"":{""_id"":""599"",""name"":""Bryan Fernandes"",""avatar"":""|963891434_1649373227.jpeg""}}]"
572,Marina Roof Bar,"TGI Fridays, Limassol Marina St, Limassol (above, Limassol 3601,",2021-12-28 22:40:31,34.6688,33.0403,0,55,"[{""text"":""Updated Venue"",""_id"":""355"",""createdAt"":""2021-12-29T06:40:31.229Z"",""user"":{""_id"":""355"",""name"":""M"",""avatar"":""|1470961955_1639830894.jpeg""}},{""text"":""ill be out later at Marina Roof Bar"",""_id"":""267"",""createdAt"":""2021-12-28T08:45:53.667Z"",""user"":{""_id"":""267"",""name"":""Francine"",""avatar"":""|791147449_1639816321.jpeg""}}]"
573,BordelloBar Limassol,"06 Archibishop Kyprianos street Limassol, 3036, Cyprus",2021-12-28 23:11:43,34.6745,33.0447,0,55,"[{""text"":""Updated Venue"",""_id"":""377"",""createdAt"":""2021-12-29T07:11:42.458Z"",""user"":{""_id"":""377"",""name"":""Djuli"",""avatar"":""|1858398092_1640705677.jpeg""}},{""text"":""I am at BordelloBar Limassol"",""_id"":""293"",""createdAt"":""2021-12-29T07:04:39.269Z"",""user"":{""_id"":""293"",""name"":""Jessica"",""avatar"":""|876665038_1639816966.jpeg""}},{""text"":""Updated Venue"",""_id"":""377"",""createdAt"":""2021-12-29T07:04:19.832Z"",""user"":{""_id"":""377"",""name"":""Djuli"",""avatar"":""|1858398092_1640705677.jpeg""}},{""text"":""Updated Venue"",""_id"":""377"",""createdAt"":""2021-12-29T06:40:28.544Z"",""user"":{""_id"":""377"",""name"":""Djuli"",""avatar"":""|1858398092_1640705677.jpeg""}}]"
574,7 Seas,"Agiou Andreou 223, Limassol 3036, Cyprus",2021-12-28 07:55:24,34.6772,33.048,0,55,"[{""text"":""where are you ??"",""_id"":""314"",""createdAt"":""2021-12-28T15:55:21.806Z"",""user"":{""_id"":""314"",""name"":""u1d20u029fu1d00u1d05u026asu029fu1d00u1d20"",""avatar"":""|1249249735_1639819977.jpeg""}},{""text"":""Updated Venue"",""_id"":""377"",""createdAt"":""2021-12-28T15:40:47.234Z"",""user"":{""_id"":""377"",""name"":""Djuli"",""avatar"":""|1858398092_1640705677.jpeg""}}]"
575,BLACK SUGAR 88,"Saripolou & Kanari 77 Limassol, 4016, Cyprus",2021-12-28 11:42:59,34.6762,33.0426,0,55,"[{""text"":""come and scan me ... "",""_id"":""328"",""createdAt"":""2021-12-28T19:42:58.248Z"",""user"":{""_id"":""328"",""name"":""Linda"",""avatar"":""|1855169218_1639820402.jpeg""}}]"
576,Tapper Bar,"Eleftherias 62, Limassol, Cyprus",2021-12-28 22:53:53,34.6743,33.0401,0,55,"[{""text"":""Updated Venue"",""_id"":""377"",""createdAt"":""2021-12-29T06:53:52.975Z"",""user"":{""_id"":""377"",""name"":""Djuli"",""avatar"":""|1858398092_1640705677.jpeg""}},{""text"":""any boat parties here"",""_id"":""264"",""createdAt"":""2021-12-28T15:37:27.142Z"",""user"":{""_id"":""264"",""name"":""Ju00e9ssica"",""avatar"":""|408034460_1639816149.jpeg""}}]"
577,Mason Bar,"Ζικ Ζακ 10, Limassol 3036, Cyprus",2021-12-28 21:28:12,34.6732,33.043,0,55,"[{""text"":""here ... Mason Bar"",""_id"":""272"",""createdAt"":""2021-12-29T05:28:12.220Z"",""user"":{""_id"":""272"",""name"":""Kayla"",""avatar"":""|1102935853_1639816399.jpeg""}},{""text"":""try and find me, im at the back "",""_id"":""272"",""createdAt"":""2021-12-28T19:42:51.465Z"",""user"":{""_id"":""272"",""name"":""Kayla"",""avatar"":""|1102935853_1639816399.jpeg""}},{""text"":""just here on vacation "",""_id"":""266"",""createdAt"":""2021-12-28T10:18:31.539Z"",""user"":{""_id"":""266"",""name"":""Danisha"",""avatar"":""|181018026_1639816216.jpeg""}},{""text"":""Updated Venue"",""_id"":""377"",""createdAt"":""2021-12-28T10:18:27.404Z"",""user"":{""_id"":""377"",""name"":""Djuli"",""avatar"":""|89547010_1640348625.jpeg""}}]"
578,Poe BAR,"Nikola Xiouta 4, Limassol, Cyprus",2021-12-28 12:31:49,34.6756,33.0449,0,55,"[{""text"":""Updated Venue"",""_id"":""296"",""createdAt"":""2021-12-28T20:31:48.215Z"",""user"":{""_id"":""296"",""name"":""Rafaela"",""avatar"":""|1285357442_1639817007.jpeg""}},{""text"":""looking to make some new friends"",""_id"":""337"",""createdAt"":""2021-12-28T19:42:58.251Z"",""user"":{""_id"":""337"",""name"":""KARELEY"",""avatar"":""|934963098_1639820877.jpeg""}},{""text"":""who wants to pay for my drink "",""_id"":""296"",""createdAt"":""2021-12-28T16:03:22.528Z"",""user"":{""_id"":""296"",""name"":""Rafaela"",""avatar"":""|1285357442_1639817007.jpeg""}},{""text"":""can anyone recommend some fun activities here "",""_id"":""296"",""createdAt"":""2021-12-28T16:03:22.526Z"",""user"":{""_id"":""296"",""name"":""Rafaela"",""avatar"":""|1285357442_1639817007.jpeg""}}]"
579,Gin Garden,"Ifigeneias 23, Limassol 3036, Cyprus",2021-12-28 12:18:51,34.6754,33.045,0,55,"[{""text"":""i want pizza"",""_id"":""339"",""createdAt"":""2021-12-28T20:18:49.635Z"",""user"":{""_id"":""339"",""name"":""u0412u0430u043bu0435u043du0442u0438u043du0430"",""avatar"":""|1540322692_1639820915.jpeg""}},{""text"":""Updated Venue"",""_id"":""377"",""createdAt"":""2021-12-28T15:44:37.383Z"",""user"":{""_id"":""377"",""name"":""Djuli"",""avatar"":""|1858398092_1640705677.jpeg""}}]"
580,Blue Apple Bar & Grill,"Saripolou 72, Limassol 3036, Cyprus",2021-12-28 12:18:52,34.676,33.0431,0,55,"[{""text"":""hey"",""_id"":""333"",""createdAt"":""2021-12-28T20:18:49.622Z"",""user"":{""_id"":""333"",""name"":""Darius"",""avatar"":""|1180352532_1639820620.jpeg""}},{""text"":""where are you ??"",""_id"":""333"",""createdAt"":""2021-12-28T19:42:58.253Z"",""user"":{""_id"":""333"",""name"":""Darius"",""avatar"":""|1180352532_1639820620.jpeg""}},{""text"":""Katlyn is that you up near the front"",""_id"":""300"",""createdAt"":""2021-12-28T15:55:21.809Z"",""user"":{""_id"":""300"",""name"":""Fallon"",""avatar"":""|1728753487_1639817164.jpeg""}},{""text"":""i need the prize money, come and find me"",""_id"":""344"",""createdAt"":""2021-12-28T08:33:08.645Z"",""user"":{""_id"":""344"",""name"":""ROYO"",""avatar"":""|1364350199_1639821167.jpeg""}}]"
581,Rogmes Live Music,"M2GW+7J5, Limassol, Cyprus",2021-12-28 21:28:03,34.6756,33.0466,0,55,"[{""text"":""Jeremy i think i see you"",""_id"":""268"",""createdAt"":""2021-12-29T05:28:02.371Z"",""user"":{""_id"":""268"",""name"":""Yanetta"",""avatar"":""|246135140_1639816334.jpeg""}},{""text"":""im sitting at the bar "",""_id"":""309"",""createdAt"":""2021-12-28T19:42:58.245Z"",""user"":{""_id"":""309"",""name"":""Cansu"",""avatar"":""|271696749_1639817344.jpeg""}},{""text"":""hello"",""_id"":""268"",""createdAt"":""2021-12-28T15:28:27.281Z"",""user"":{""_id"":""268"",""name"":""Yanetta"",""avatar"":""|246135140_1639816334.jpeg""}}]"
582,Soho Bar,"Archiepiskopou Kyprianou, Limassol, Cyprus",2021-12-28 12:23:53,34.6755,33.0438,0,55,"[{""text"":""Updated Venue"",""_id"":""294"",""createdAt"":""2021-12-28T20:23:52.998Z"",""user"":{""_id"":""294"",""name"":""u041bu0430u0440u0438u0441u0430"",""avatar"":""|151301494_1639816979.jpeg""}},{""text"":""I am at Soho Bar"",""_id"":""336"",""createdAt"":""2021-12-28T08:33:03.970Z"",""user"":{""_id"":""336"",""name"":""u0418u043du043du0430"",""avatar"":""|88246480_1639820827.jpeg""}}]"
583,Marina Breeze Lounge Bar,"Limassol Marina , Shop E3, 3601, Mail Box 50160 Limassol, 3601, ",2021-12-28 00:45:53,34.6693,33.0389,0,55,"[{""text"":""how is everyone doing"",""_id"":""269"",""createdAt"":""2021-12-28T08:45:53.658Z"",""user"":{""_id"":""269"",""name"":""u041au0410u0420u0418u041du0410"",""avatar"":""|1486563039_1639816346.jpeg""}}]"
584,Madame,"Andrea Drousioti, Limassol, Cyprus",2021-12-28 00:31:32,34.6795,33.0461,0,55,
585,HookahPlace Limassol,"Spartis 2, Limassol, Cyprus",2021-12-28 22:58:19,34.6737,33.042,0,55,"[{""text"":""Updated Venue"",""_id"":""377"",""createdAt"":""2021-12-29T06:58:19.083Z"",""user"":{""_id"":""377"",""name"":""Djuli"",""avatar"":""|1858398092_1640705677.jpeg""}},{""text"":""Updated Venue"",""_id"":""377"",""createdAt"":""2021-12-29T06:53:46.507Z"",""user"":{""_id"":""377"",""name"":""Djuli"",""avatar"":""|1858398092_1640705677.jpeg""}},{""text"":""Updated Venue"",""_id"":""377"",""createdAt"":""2021-12-29T06:52:52.098Z"",""user"":{""_id"":""377"",""name"":""Djuli"",""avatar"":""|1858398092_1640705677.jpeg""}},{""text"":""Updated Venue"",""_id"":""377"",""createdAt"":""2021-12-29T06:49:06.597Z"",""user"":{""_id"":""377"",""name"":""Djuli"",""avatar"":""|1858398092_1640705677.jpeg""}}]"
586,The Yacht Club,"E9, Limassol Marina 1st Floor Limassol, 3601, Cyprus",2021-12-28 22:40:32,34.6693,33.0402,0,55,"[{""text"":""can anyone recommend some fun activities here "",""_id"":""261"",""createdAt"":""2021-12-29T06:40:31.234Z"",""user"":{""_id"":""261"",""name"":""Jess"",""avatar"":""|1621802397_1639815912.jpeg""}}]"
587,Sousami,"Kitiou Kyprianou 8, Limassol, Cyprus",2021-12-28 22:53:40,34.6741,33.0434,0,55,"[{""text"":""Updated Venue"",""_id"":""377"",""createdAt"":""2021-12-29T06:53:39.736Z"",""user"":{""_id"":""377"",""name"":""Djuli"",""avatar"":""|1858398092_1640705677.jpeg""}},{""text"":""Updated Venue"",""_id"":""377"",""createdAt"":""2021-12-29T06:51:34.959Z"",""user"":{""_id"":""377"",""name"":""Djuli"",""avatar"":""|1858398092_1640705677.jpeg""}},{""text"":""Updated Venue"",""_id"":""377"",""createdAt"":""2021-12-29T06:51:11.082Z"",""user"":{""_id"":""377"",""name"":""Djuli"",""avatar"":""|1858398092_1640705677.jpeg""}},{""text"":""Updated Venue"",""_id"":""377"",""createdAt"":""2021-12-29T06:47:33.425Z"",""user"":{""_id"":""377"",""name"":""Djuli"",""avatar"":""|1858398092_1640705677.jpeg""}}]"
588,Frankie's Social,"Arch. Makarios III Avenue 226, Limassol, Cyprus",0000-00-00 00:00:00,34.6869,33.0509,0,55,
589,Salut,"Saripolou 71-73, Limassol 3036, Cyprus",2021-12-28 00:31:35,34.6761,33.0426,0,55,
590,Industry bar and food,"M2GV+953, Limassol, Cyprus",2021-12-28 00:32:54,34.6759,33.0429,0,55,"[{""text"":""can anyone recommend some fun activities here "",""_id"":""263"",""createdAt"":""2021-12-28T08:32:52.825Z"",""user"":{""_id"":""263"",""name"":""Melissa"",""avatar"":""|1915022526_1639816123.jpeg""}}]"
591,The Wine Bar,"Arch. Makarios III Avenue, Limassol, Cyprus",0000-00-00 00:00:00,34.6873,33.0397,0,55,
592,Balcon8 Resto-Bar,"Themidos 1, Limassol, Cyprus",2021-12-28 23:04:16,34.6753,33.0449,0,55,"[{""text"":""Updated Venue"",""_id"":""377"",""createdAt"":""2021-12-29T07:04:15.417Z"",""user"":{""_id"":""377"",""name"":""Djuli"",""avatar"":""|1858398092_1640705677.jpeg""}}]"
593,Chaplins Bar,"Saripolou, Limassol, Cyprus",2021-12-28 08:03:22,34.6744,33.0437,0,55,"[{""text"":""who wants to buy my instagram"",""_id"":""341"",""createdAt"":""2021-12-28T16:03:22.524Z"",""user"":{""_id"":""341"",""name"":""ALINA"",""avatar"":""|802186576_1639821006.jpeg""}},{""text"":""Katlyn is that you up near the front"",""_id"":""296"",""createdAt"":""2021-12-28T15:55:21.812Z"",""user"":{""_id"":""296"",""name"":""Rafaela"",""avatar"":""|1285357442_1639817007.jpeg""}},{""text"":""ill be out later at Chaplins Bar"",""_id"":""259"",""createdAt"":""2021-12-28T10:23:38.121Z"",""user"":{""_id"":""259"",""name"":""Lori"",""avatar"":""|1127935736_1639815598.jpeg""}},{""text"":""any boat parties here"",""_id"":""255"",""createdAt"":""2021-12-28T08:32:58.851Z"",""user"":{""_id"":""255"",""name"":""Lillian"",""avatar"":""|577295052_1639815364.jpeg""}}]"
594,Hustlers Rock Club,"Loutron 1, Limassol 3036, Cyprus",2021-12-28 00:32:49,34.6731,33.0438,0,55,"[{""text"":""here"",""_id"":""308"",""createdAt"":""2021-12-28T08:32:48.336Z"",""user"":{""_id"":""308"",""name"":""Virginia"",""avatar"":""|1090904756_1639817323.jpeg""}}]"
595,Lab. restaurant bar,"Anexartisias 33, Limassol, Cyprus",2021-12-28 07:42:21,34.6756,33.0458,0,55,"[{""text"":""come and scan me ... "",""_id"":""262"",""createdAt"":""2021-12-28T15:42:20.535Z"",""user"":{""_id"":""262"",""name"":""Dashy"",""avatar"":""|134604467_1639815964.jpeg""}},{""text"":""im about to pass out "",""_id"":""339"",""createdAt"":""2021-12-28T11:07:43.713Z"",""user"":{""_id"":""339"",""name"":""u0412u0430u043bu0435u043du0442u0438u043du0430"",""avatar"":""|1540322692_1639820915.jpeg""}},{""text"":""jeremy where are you, dont see you"",""_id"":""289"",""createdAt"":""2021-12-28T08:32:58.844Z"",""user"":{""_id"":""289"",""name"":""Nicole"",""avatar"":""|991056097_1639816905.jpeg""}},{""text"":""ill be out later at Lab. restaurant bar"",""_id"":""330"",""createdAt"":""2021-12-28T08:32:52.820Z"",""user"":{""_id"":""330"",""name"":""V.D"",""avatar"":""|647021035_1639820459.jpeg""}}]"
596,Bar Du Soleil,"Limassol, Cyprus",2021-12-28 07:40:36,34.6708,33.043,0,55,"[{""text"":""Updated Venue"",""_id"":""377"",""createdAt"":""2021-12-28T15:40:35.629Z"",""user"":{""_id"":""377"",""name"":""Djuli"",""avatar"":""|1858398092_1640705677.jpeg""}},{""text"":""im sitting at the front table "",""_id"":""327"",""createdAt"":""2021-12-28T15:28:27.260Z"",""user"":{""_id"":""327"",""name"":""Ann"",""avatar"":""|1691847835_1639820389.jpeg""}},{""text"":""im sitting at the front table "",""_id"":""282"",""createdAt"":""2021-12-28T08:32:52.815Z"",""user"":{""_id"":""282"",""name"":""Kim"",""avatar"":""|1583448168_1639816797.jpeg""}}]"
597,Gypsy's Western Saloon,"B1, Limassol, Cyprus",0000-00-00 00:00:00,34.6875,33.0658,0,55,
598,Epsilon Resto Bar,"Limassol Marina St, Limassol, Cyprus",2021-12-28 02:18:31,34.6696,33.0393,0,55,"[{""text"":""Jeremy i think i see you"",""_id"":""341"",""createdAt"":""2021-12-28T10:18:31.531Z"",""user"":{""_id"":""341"",""name"":""ALINA"",""avatar"":""|802186576_1639821006.jpeg""}}]"
599,Rooftop Bar at Limassol AGORA,"Hatziloizi Mihailidi 12, Limassol 3041, Cyprus",2021-12-28 08:03:18,34.6761,33.0434,0,55,"[{""text"":""Updated Venue"",""_id"":""377"",""createdAt"":""2021-12-28T16:03:17.670Z"",""user"":{""_id"":""377"",""name"":""Djuli"",""avatar"":""|1858398092_1640705677.jpeg""}},{""text"":""hello"",""_id"":""257"",""createdAt"":""2021-12-28T15:55:21.794Z"",""user"":{""_id"":""257"",""name"":""Cristina"",""avatar"":""|1461382425_1639815492.jpeg""}},{""text"":""Updated Venue"",""_id"":""377"",""createdAt"":""2021-12-28T15:40:20.271Z"",""user"":{""_id"":""377"",""name"":""Djuli"",""avatar"":""|1858398092_1640705677.jpeg""}}]"
600,The Woodman Sports Pub & Restaurant,"Georgiou 'A 73, Germasogeia, Cyprus",0000-00-00 00:00:00,34.6946,33.0856,0,55,
601,Barbacoa Rooftop Bar,"Genethliou Mitellla 42, Limassol 3036, Cyprus",2021-12-28 22:41:13,34.6734,33.0439,0,55,"[{""text"":""Updated Venue"",""_id"":""377"",""createdAt"":""2021-12-29T06:41:13.124Z"",""user"":{""_id"":""377"",""name"":""Djuli"",""avatar"":""|1858398092_1640705677.jpeg""}},{""text"":""Updated Venue"",""_id"":""377"",""createdAt"":""2021-12-29T06:38:08.484Z"",""user"":{""_id"":""377"",""name"":""Djuli"",""avatar"":""|1858398092_1640705677.jpeg""}},{""text"":""Updated Venue"",""_id"":""377"",""createdAt"":""2021-12-29T06:35:50.042Z"",""user"":{""_id"":""377"",""name"":""Djuli"",""avatar"":""|1858398092_1640705677.jpeg""}},{""text"":""Updated Venue"",""_id"":""377"",""createdAt"":""2021-12-29T06:32:46.097Z"",""user"":{""_id"":""377"",""name"":""Djuli"",""avatar"":""|1858398092_1640705677.jpeg""}}]"
602,Dusty Munky,"Andrea Drousioti 23A, Limassol 3040, Cyprus",2021-12-28 12:18:51,34.6798,33.046,0,55,"[{""text"":""who wants to buy my instagram"",""_id"":""269"",""createdAt"":""2021-12-28T20:18:49.631Z"",""user"":{""_id"":""269"",""name"":""u041au0410u0420u0418u041du0410"",""avatar"":""|1486563039_1639816346.jpeg""}},{""text"":""just here on vacation "",""_id"":""351"",""createdAt"":""2021-12-28T19:42:51.451Z"",""user"":{""_id"":""351"",""name"":""Alena"",""avatar"":""|1886354543_1639821320.jpeg""}},{""text"":""im sitting at the front table "",""_id"":""351"",""createdAt"":""2021-12-28T15:28:27.278Z"",""user"":{""_id"":""351"",""name"":""Alena"",""avatar"":""|1886354543_1639821320.jpeg""}}]"
603,Anjeloose Bar,"Eleftherias 96, Limassol, Cyprus",2021-12-28 12:31:50,34.6744,33.0398,0,55,"[{""text"":""any boat parties here"",""_id"":""347"",""createdAt"":""2021-12-28T20:31:48.226Z"",""user"":{""_id"":""347"",""name"":""ENDER"",""avatar"":""|1438672915_1639821235.jpeg""}},{""text"":""who wants to buy my instagram"",""_id"":""281"",""createdAt"":""2021-12-28T08:33:08.649Z"",""user"":{""_id"":""281"",""name"":""Stephanie"",""avatar"":""|1072198096_1639816778.jpeg""}}]"
604,Zester.,"Eleftherias 108, Limassol 3042, Cyprus",2021-12-28 12:27:11,34.6746,33.0388,0,55,"[{""text"":""Updated Venue"",""_id"":""312"",""createdAt"":""2021-12-28T20:27:10.707Z"",""user"":{""_id"":""312"",""name"":""u041au0441u044eu0448u0430"",""avatar"":""|1440462587_1639819875.jpeg""}},{""text"":""where can i find a bottle shop"",""_id"":""353"",""createdAt"":""2021-12-28T10:23:38.132Z"",""user"":{""_id"":""353"",""name"":""Paula"",""avatar"":""|1477959037_1639821441.jpeg""}}]"
605,Vinylio Wine Etc,"Ankara 33, Limassol 3042, Cyprus",2021-12-28 21:28:04,34.6728,33.0412,0,55,"[{""text"":""jeremy where are you, dont see you"",""_id"":""281"",""createdAt"":""2021-12-29T05:28:02.369Z"",""user"":{""_id"":""281"",""name"":""Stephanie"",""avatar"":""|1072198096_1639816778.jpeg""}},{""text"":""hey steph im at the bar"",""_id"":""281"",""createdAt"":""2021-12-29T05:28:02.355Z"",""user"":{""_id"":""281"",""name"":""Stephanie"",""avatar"":""|1072198096_1639816778.jpeg""}},{""text"":""come and scan me ... "",""_id"":""277"",""createdAt"":""2021-12-28T08:33:03.972Z"",""user"":{""_id"":""277"",""name"":""Lily"",""avatar"":""|624528612_1639816553.jpeg""}}]"
606,One plus one pub,"Agiou Andreou 241b, Limassol, Cyprus",2021-12-28 22:40:32,34.6779,33.0485,0,55,"[{""text"":""im about to pass out "",""_id"":""263"",""createdAt"":""2021-12-29T06:40:31.232Z"",""user"":{""_id"":""263"",""name"":""Melissa"",""avatar"":""|1915022526_1639816123.jpeg""}},{""text"":""i dont see anyone, so crowded"",""_id"":""274"",""createdAt"":""2021-12-28T08:33:08.651Z"",""user"":{""_id"":""274"",""name"":""Claudinha"",""avatar"":""|2073622758_1639816433.jpeg""}}]"
607,The Old Cellar Pub,"Archiepiskopou Makarou III, Limassol, Cyprus",2021-12-29 23:23:54,34.6859,33.0591,0,55,"[{""text"":""Updated Venue"",""_id"":""250"",""createdAt"":""2021-12-30T07:23:53.900Z"",""user"":{""_id"":""250"",""name"":""Jason"",""avatar"":""|1714918865_1639986707.png""}}]"
608,Punkraft Bar,"Kanari, Limassol 3041, Cyprus",2021-12-28 22:58:12,34.6761,33.0432,0,55,"[{""text"":""Updated Venue"",""_id"":""377"",""createdAt"":""2021-12-29T06:58:12.783Z"",""user"":{""_id"":""377"",""name"":""Djuli"",""avatar"":""|1858398092_1640705677.jpeg""}},{""text"":""here ... Punkraft Bar"",""_id"":""260"",""createdAt"":""2021-12-28T08:33:08.648Z"",""user"":{""_id"":""260"",""name"":""u2663ufe0fImane"",""avatar"":""|1921139271_1639815862.jpeg""}}]"
609,The Lounge,"28 October Ave 271, Limassol, Cyprus",2021-12-28 11:16:38,34.6799,33.0527,0,55,"[{""text"":""Updated Venue"",""_id"":""377"",""createdAt"":""2021-12-28T19:16:37.528Z"",""user"":{""_id"":""377"",""name"":""Djuli"",""avatar"":""|1858398092_1640705677.jpeg""}},{""text"":""Updated Venue"",""_id"":""377"",""createdAt"":""2021-12-28T19:15:51.797Z"",""user"":{""_id"":""377"",""name"":""Djuli"",""avatar"":""|1858398092_1640705677.jpeg""}},{""text"":""Updated Venue"",""_id"":""377"",""createdAt"":""2021-12-28T15:44:20.754Z"",""user"":{""_id"":""377"",""name"":""Djuli"",""avatar"":""|1858398092_1640705677.jpeg""}}]"
610,Sarajevo Dive Bar,"Agiou Andreou 221, Limassol 3036, Cyprus",2021-12-28 00:45:55,34.6767,33.0478,0,55,"[{""text"":""ill be out later at Sarajevo Dive Bar"",""_id"":""299"",""createdAt"":""2021-12-28T08:45:53.665Z"",""user"":{""_id"":""299"",""name"":""Medusa"",""avatar"":""|1405514394_1639817153.jpeg""}},{""text"":""try and find me, im at the back "",""_id"":""306"",""createdAt"":""2021-12-28T08:32:48.341Z"",""user"":{""_id"":""306"",""name"":""Michelle"",""avatar"":""|1328511621_1639817285.jpeg""}}]"
611,Da Vinci,"28 Genethilou Mytella & 12, Loutron, Limassol, Cyprus",2021-12-28 04:24:32,34.6731,33.0434,0,55,"[{""text"":""come and scan me ... "",""_id"":""329"",""createdAt"":""2021-12-28T12:24:31.841Z"",""user"":{""_id"":""329"",""name"":""Aloha"",""avatar"":""|1281146015_1639820447.jpeg""}},{""text"":""sitting at >> Da Vinci"",""_id"":""311"",""createdAt"":""2021-12-28T08:32:52.823Z"",""user"":{""_id"":""311"",""name"":""Lori"",""avatar"":""|1441136656_1639819829.jpeg""}}]"
612,Metropole Retro Club,"Ifigeneias, Limassol 3036, Cyprus",2021-12-28 23:04:25,34.6752,33.0455,0,55,"[{""text"":""Updated Venue"",""_id"":""377"",""createdAt"":""2021-12-29T07:04:24.645Z"",""user"":{""_id"":""377"",""name"":""Djuli"",""avatar"":""|1858398092_1640705677.jpeg""}},{""text"":""Here"",""_id"":""377"",""createdAt"":""2021-12-28T15:39:30.601Z"",""user"":{""_id"":""377"",""name"":""Djuli"",""avatar"":""|1858398092_1640705677.jpeg""}},{""text"":""Hello"",""_id"":""377"",""createdAt"":""2021-12-28T15:37:54.508Z"",""user"":{""_id"":""377"",""name"":""Djuli"",""avatar"":""|1858398092_1640705677.jpeg""}},{""text"":""Updated Venue"",""_id"":""377"",""createdAt"":""2021-12-28T11:09:51.928Z"",""user"":{""_id"":""377"",""name"":""Djuli"",""avatar"":""|89547010_1640348625.jpeg""}}]"
613,Opa Opa Club,"M2JW+C22, Limassol, Cyprus",0000-00-00 00:00:00,34.681,33.045,0,55,
614,Story Club,"Kanari, Limassol, Cyprus",2021-12-28 00:20:35,34.6761,33.0424,0,55,
615,Summer Breeze,"Georgiou 'A 98, Germasogeia 4048, Cyprus",0000-00-00 00:00:00,34.6997,33.1012,0,55,
617,OLA Club,"Agkyras 18, Limassol 3042, Cyprus",2021-12-28 04:24:39,34.673,33.0415,0,55,"[{""text"":""Katlyn is that you up near the front"",""_id"":""296"",""createdAt"":""2021-12-28T12:24:39.538Z"",""user"":{""_id"":""296"",""name"":""Rafaela"",""avatar"":""|1285357442_1639817007.jpeg""}},{""text"":""Chrissy, i see you, get your QR code ready"",""_id"":""309"",""createdAt"":""2021-12-28T10:18:31.535Z"",""user"":{""_id"":""309"",""name"":""Cansu"",""avatar"":""|271696749_1639817344.jpeg""}}]"
619,Club Eleven,"Ambelakion 1, Germasogeia 4101, Cyprus",0000-00-00 00:00:00,34.6981,33.0923,0,55,
620,Rich Club,"Arch. Makarios III Avenue 73, Limassol, Cyprus",0000-00-00 00:00:00,34.6797,33.0259,0,55,
622,Xray Club,"Arch. Makarios III Avenue, Limassol, Cyprus",0000-00-00 00:00:00,34.6806,33.0272,0,55,
623,VIP ROOM GOLD,"98 Georgiou A Street, Germasogeia 4048, Cyprus",0000-00-00 00:00:00,34.6998,33.1011,0,55,
624,Seven seas,"P24F+V25, Limassol, Cyprus",0000-00-00 00:00:00,34.7071,33.0226,0,55,
626,Ravens Music Hall,"Socratous 4, Limassol 3036, Cyprus",2021-12-28 23:04:41,34.6749,33.0434,0,55,"[{""text"":""how is everyone doing"",""_id"":""339"",""createdAt"":""2021-12-29T07:04:39.274Z"",""user"":{""_id"":""339"",""name"":""u0412u0430u043bu0435u043du0442u0438u043du0430"",""avatar"":""|1540322692_1639820915.jpeg""}},{""text"":""Updated Venue"",""_id"":""257"",""createdAt"":""2021-12-29T07:04:39.261Z"",""user"":{""_id"":""257"",""name"":""Cristina"",""avatar"":""|1461382425_1639815492.jpeg""}},{""text"":""Updated Venue"",""_id"":""377"",""createdAt"":""2021-12-29T06:58:01.637Z"",""user"":{""_id"":""377"",""name"":""Djuli"",""avatar"":""|1858398092_1640705677.jpeg""}},{""text"":""Updated Venue"",""_id"":""377"",""createdAt"":""2021-12-29T06:44:40.446Z"",""user"":{""_id"":""377"",""name"":""Djuli"",""avatar"":""|1858398092_1640705677.jpeg""}}]"
628,Ρωγμές,"Agiou Andreou 197, Limassol, Cyprus",2021-12-28 12:18:51,34.6763,33.0471,0,55,"[{""text"":""what place has the best drink deals"",""_id"":""352"",""createdAt"":""2021-12-28T20:18:49.633Z"",""user"":{""_id"":""352"",""name"":""Daisey"",""avatar"":""|428711537_1639821423.jpeg""}}]"
629,Notes Live Cyprus,"Eleftherias 5, Limassol 3315, Cyprus",2021-12-28 00:32:55,34.6734,33.0409,0,55,"[{""text"":""I am at Notes Live Cyprus"",""_id"":""276"",""createdAt"":""2021-12-28T08:32:55.715Z"",""user"":{""_id"":""276"",""name"":""Naam"",""avatar"":""|157293303_1639816460.jpeg""}}]"
630,Cyprus International Sailing Club (CISC),"Limassol Marina Limassol CY 3601, Limassol Marina St, Limassol, ",0000-00-00 00:00:00,34.6686,33.0404,0,55,
631,Cote D'Azur Gold City,"Arch. Makarios III Avenue 115, Limassol, Cyprus",0000-00-00 00:00:00,34.6847,33.0318,0,55,
632,Limassol Nautical Club,"Προμαχών Ελευθερίας, Agios Athanasios 4103, Cyprus",0000-00-00 00:00:00,34.6896,33.073,0,55,
633,Guaba Beach Bar,"Amathountos, Mouttagiaka 4531, Cyprus",0000-00-00 00:00:00,34.7026,33.108,0,55,
635,Education limassol,"M2XC+GFP, Limassol, Cyprus",0000-00-00 00:00:00,34.6988,33.0212,0,55,
637,LCC Limassol Climbing Club,"Lamprou Porfira 2, Limassol, Cyprus",0000-00-00 00:00:00,34.6902,33.0583,0,55,
638,IceBox Club,"2A, Vasileos Georgiou A, Potamos tis Germasogeias, Germasogeia,,",0000-00-00 00:00:00,34.6975,33.0924,0,55,
639,anodos,"Eleftherias 133, Limassol, Cyprus",2021-12-28 12:26:51,34.6746,33.038,0,55,"[{""text"":""im about to pass out "",""_id"":""280"",""createdAt"":""2021-12-28T20:26:50.689Z"",""user"":{""_id"":""280"",""name"":""Agnes"",""avatar"":""|901100673_1639816764.jpeg""}},{""text"":""so bored tonight"",""_id"":""263"",""createdAt"":""2021-12-28T12:24:39.540Z"",""user"":{""_id"":""263"",""name"":""Melissa"",""avatar"":""|1915022526_1639816123.jpeg""}}]"
640,Retro club,"M3RG+FFG, Limassol, Cyprus",2021-12-29 23:17:48,34.6912,33.0762,0,55,"[{""text"":""Updated Venue"",""_id"":""250"",""createdAt"":""2021-12-30T07:17:47.904Z"",""user"":{""_id"":""250"",""name"":""Jason"",""avatar"":""|1714918865_1639986707.png""}},{""text"":""Updated Venue"",""_id"":""250"",""createdAt"":""2021-12-29T12:21:28.165Z"",""user"":{""_id"":""250"",""name"":""Jason"",""avatar"":""|1714918865_1639986707.png""}}]"
641,Limassol Auto Club,"M2Q8+8C7, Kato Polemidia, Cyprus",0000-00-00 00:00:00,34.6883,33.0161,0,55,
642,Club Aphrodite,"Gallias 94, Erimi 4630, Cyprus",0000-00-00 00:00:00,34.6877,32.9242,0,55,
643,Limassol Golf Club,"Spyrou Araouzou, Limassol, Cyprus",2021-12-28 22:17:53,34.6731,33.045,0,55,"[{""text"":""Updated Venue"",""_id"":""377"",""createdAt"":""2021-12-29T06:17:53.065Z"",""user"":{""_id"":""377"",""name"":""Djuli"",""avatar"":""|1858398092_1640705677.jpeg""}},{""text"":""Updated Venue"",""_id"":""377"",""createdAt"":""2021-12-29T06:16:59.817Z"",""user"":{""_id"":""377"",""name"":""Djuli"",""avatar"":""|1858398092_1640705677.jpeg""}},{""text"":""Updated Venue"",""_id"":""377"",""createdAt"":""2021-12-29T06:16:14.257Z"",""user"":{""_id"":""377"",""name"":""Djuli"",""avatar"":""|1858398092_1640705677.jpeg""}},{""text"":""Updated Venue"",""_id"":""250"",""createdAt"":""2021-12-28T12:35:36.172Z"",""user"":{""_id"":""250"",""name"":""Jason"",""avatar"":""|1714918865_1639986707.png""}}]"
644,Polis Boxing Academy est.1994 | Limassol Boxing Club,"Agias Zonis 5, Limassol 3027, Cyprus",2021-12-28 21:28:04,34.6819,33.0435,0,55,"[{""text"":""what is the best place to eat at this time"",""_id"":""325"",""createdAt"":""2021-12-29T05:28:02.374Z"",""user"":{""_id"":""325"",""name"":""Shirley"",""avatar"":""|1318561168_1639820356.jpeg""}},{""text"":""what is the best place to eat at this time"",""_id"":""327"",""createdAt"":""2021-12-28T08:32:58.848Z"",""user"":{""_id"":""327"",""name"":""Ann"",""avatar"":""|1691847835_1639820389.jpeg""}}]"
645,Limassol Spartans Dragon Boat club,"Germasogia dam Limassol, 3101, Cyprus",0000-00-00 00:00:00,34.7483,33.0823,0,55,
646,"Zulu Dragon Boat Team, Limassol (Cyprus Paddle Sports club)","F128, Akrounta, Cyprus",0000-00-00 00:00:00,34.7485,33.0819,0,55,
647,"Kime Karate Club Limassol, Cyprus","Demetriou Mitropoulou 32, Mesa Geitonia, Cyprus",2021-12-29 23:22:03,34.697,33.0515,0,55,"[{""text"":""Updated Venue"",""_id"":""250"",""createdAt"":""2021-12-30T07:22:03.244Z"",""user"":{""_id"":""250"",""name"":""Jason"",""avatar"":""|1714918865_1639986707.png""}}]"
648,SUP Club Limassol,"Agios Tychon, Cyprus",2021-12-29 23:17:35,34.7082,33.1289,0,55,"[{""text"":""Updated Venue"",""_id"":""250"",""createdAt"":""2021-12-30T07:17:35.006Z"",""user"":{""_id"":""250"",""name"":""Jason"",""avatar"":""|1714918865_1639986707.png""}},{""text"":""Updated Venue"",""_id"":""250"",""createdAt"":""2021-12-29T12:21:50.982Z"",""user"":{""_id"":""250"",""name"":""Jason"",""avatar"":""|1714918865_1639986707.png""}},{""text"":""Updated Venue"",""_id"":""250"",""createdAt"":""2021-12-29T12:21:37.664Z"",""user"":{""_id"":""250"",""name"":""Jason"",""avatar"":""|1714918865_1639986707.png""}}]"
649,Dx Club,"Themidos 9, Limassol 3036, Cyprus",2021-12-28 21:28:12,34.6758,33.0453,0,55,"[{""text"":""what place has the best drink deals"",""_id"":""297"",""createdAt"":""2021-12-29T05:28:12.216Z"",""user"":{""_id"":""297"",""name"":""leu00e3o"",""avatar"":""|584927562_1639817021.jpeg""}},{""text"":""Updated Venue"",""_id"":""338"",""createdAt"":""2021-12-28T20:20:30.238Z"",""user"":{""_id"":""338"",""name"":""u0410u043bu0435u043du0430"",""avatar"":""|339786197_1639820894.jpeg""}},{""text"":""here"",""_id"":""338"",""createdAt"":""2021-12-28T19:42:51.467Z"",""user"":{""_id"":""338"",""name"":""u0410u043bu0435u043du0430"",""avatar"":""|339786197_1639820894.jpeg""}}]"
650,Kyrenia Nautical Club,"Amathountos Ave, Mouttagiaka, Cyprus",0000-00-00 00:00:00,34.7023,33.1073,0,55,
651,Two Waves Surfing Club & Restaurant,"4527, Ariadnis, Limassol, Cyprus",2021-12-29 23:18:04,34.7053,33.1066,0,55,"[{""text"":""Updated Venue"",""_id"":""250"",""createdAt"":""2021-12-30T07:18:04.480Z"",""user"":{""_id"":""250"",""name"":""Jason"",""avatar"":""|1714918865_1639986707.png""}},{""text"":""Updated Venue"",""_id"":""250"",""createdAt"":""2021-12-30T07:18:00.076Z"",""user"":{""_id"":""250"",""name"":""Jason"",""avatar"":""|1714918865_1639986707.png""}}]"
659,Black Angel's Bar,29 Staroměstské náměstí 110 00 Praha 1 Czechia,0000-00-00 00:00:00,50.0865,14.4202,0,55,
660,W Barcelona,Passeig de Joan de Borbó 08039 Barcelona Spain,0000-00-00 00:00:00,41.3684,2.19015,1,55,
661,Lulu White Drinking Club,12 Rue Frochot 75009 Paris France,0000-00-00 00:00:00,48.8818,2.33745,1,55,
662,The Dead Rabbit NYC,"30 Water Street New York, NY 10004 United States",0000-00-00 00:00:00,40.7033,-74.011,0,55,
664,Carwash Nightclub,19 Dering Street London W1S 1AH United Kingdom,0000-00-00 00:00:00,51.5142,-0.145458,0,55,
665,Klub 20/44,"Klub 20/44 Ušće bb Beograd, 11000, Serbia 11000 Beograd Serbia",2022-09-30 09:13:26,44.8176,20.4458,0,55,"[{""text"":""Updated Venue"",""_id"":""703"",""createdAt"":""2022-09-30T16:13:20.167Z"",""user"":{""_id"":""703"",""name"":""Stephan"",""avatar"":""|783486850_1662554368.png""}}]"
666,The Roxy Cabaret,"932 Granville Street Vancouver, BC V6Z 1L2 Canada",0000-00-00 00:00:00,49.2797,-123.122,0,55,
667,La Octava Bar,"#37a-49 Calle 8 Medellín, Antioquia 050021 Colombia",2022-01-08 13:17:01,6.2075,-75.5681,1,55,"[{""text"":""Updated Venue"",""_id"":""390"",""createdAt"":""2022-01-08T21:16:59.613Z"",""user"":{""_id"":""390"",""name"":""April"",""avatar"":""|1228167130_1641673522.jpeg""}},{""text"":""Updated Venue"",""_id"":""390"",""createdAt"":""2022-01-08T21:16:16.465Z"",""user"":{""_id"":""390"",""name"":""April"",""avatar"":""|1228167130_1641673522.jpeg""}},{""text"":""Updated Venue"",""_id"":""390"",""createdAt"":""2022-01-08T21:15:00.185Z"",""user"":{""_id"":""390"",""name"":""April"",""avatar"":""|1228167130_1641673522.jpeg""}},{""text"":""Updated Venue"",""_id"":""390"",""createdAt"":""2022-01-08T20:38:50.825Z"",""user"":{""_id"":""390"",""name"":""April"",""avatar"":""|1228167130_1641673522.jpeg""}}]"
668,Lab Club,"523 Rua Augusta Consolação, SP 01305-000 Brazil",0000-00-00 00:00:00,-23.5518,-46.651,0,55,
670,Hype Belgrade Night Club,46 Karađorđeva 11000 Beograd Serbia,2022-09-30 08:47:23,44.8139,20.4512,1,55,"[{""text"":""Updated Venue"",""_id"":""703"",""createdAt"":""2022-09-30T15:47:22.205Z"",""user"":{""_id"":""703"",""name"":"""",""avatar"":""|783486850_1662554368.png""}},{""text"":""Updated Venue"",""_id"":""665"",""createdAt"":""2022-09-26T12:06:13.925Z"",""user"":{""_id"":""665"",""name"":""Brenda"",""avatar"":""|2063419226_1653683912.jpeg""}}]"
681,The Swinging Cat,"44 King Street Sydney, NSW 2000 Australia",0000-00-00 00:00:00,-33.8686,151.205,0,55,
682,South Tweed Tavern,"53 Minjungbal Drive Tweed Heads South, NSW 2486 Australia",0000-00-00 00:00:00,-28.1927,153.541,0,55,
683,Suzie Wong Bar,"82 Hindley Street Adelaide, SA 5000 Australia",0000-00-00 00:00:00,-34.923,138.596,0,55,
684,The Pourhouse,"327 High Street Maitland, NSW 2320 Australia",0000-00-00 00:00:00,-32.7357,151.559,0,55,
685,High Jinks,"15 Edinburgh Avenue #Basement 2 Canberra, ACT 2601 Australia",0000-00-00 00:00:00,-35.2847,149.124,0,55,
686,Prince Lane Bar,"356 Murray Street Perth, WA 6000 Australia",0000-00-00 00:00:00,-31.9516,115.855,0,55,
687,Brewski Bar,"22 Caxton St Brisbane City, QLD 4000 Australia",0000-00-00 00:00:00,-27.4645,153.013,0,55,
689,2Twenty2 Tavern,"222 South Wabash Avenue Chicago, IL 60604 United States",0000-00-00 00:00:00,41.8789,-87.6264,0,55,
690,Smuggler's Cove,"650 Gough Street San Francisco, CA 94102 United States",2022-04-09 22:20:23,37.7794,-122.423,0,55,"[{""text"":""Updated Venue"",""_id"":""303"",""createdAt"":""2022-04-10T05:20:22.550Z"",""user"":{""_id"":""303"",""name"":""Jenna"",""avatar"":""|589959837_1639817233.jpeg""}}]"
691,Anvil Bar & Refuge,"1424 Westheimer Road Houston, TX 77006 United States",0000-00-00 00:00:00,29.743,-95.3969,0,55,
692,The Baxter Inn,"152-156 Clarence Street Sydney, NSW 2000 Australia",0000-00-00 00:00:00,-33.8696,151.206,0,55,
693,The Library Bar,"210 West Rittenhouse Square Philadelphia, PA 19103 United States",0000-00-00 00:00:00,39.9498,-75.1732,0,55,
694,Sazerac PHX - Cocktails and Craft - Indoor Outdoor,"821 North 2nd Street Phoenix, AZ 85004 United States",0000-00-00 00:00:00,33.4575,-112.071,1,55,
695,Dierks Bentley's Whiskey Row - Nashville,"400 Broadway Nashville, TN 37203 United States",0000-00-00 00:00:00,36.1611,-86.7774,0,55,
696,One Eyed Penguin,"1404 Main Dallas, TX 75202 United States",0000-00-00 00:00:00,32.7803,-96.8,0,55,
697,"Swine Restaurant, Moonshine & Whisky Bar","808 Southwest Taylor Street Portland, OR 97205 United States",0000-00-00 00:00:00,45.5183,-122.682,0,55,
698,Rooftop Bar,"Curtin House, level 7/252 Swanston St Melbourne, VIC 3000 Austra",0000-00-00 00:00:00,-37.812,144.965,0,55,
699,Sweet Liberty Drinks & Supply Company,"237 20th Street #suite b Miami Beach, FL 33139 United States",2022-01-08 13:15:14,25.796,-80.13,0,55,"[{""text"":""Updated Venue"",""_id"":""390"",""createdAt"":""2022-01-08T21:15:12.758Z"",""user"":{""_id"":""390"",""name"":""April"",""avatar"":""|1228167130_1641673522.jpeg""}}]"
700,Midnight Cowboy,"313 East 6th Street Austin, TX 78701 United States",0000-00-00 00:00:00,30.2671,-97.74,0,55,
701,Bar America,"723 South Alamo Street San Antonio, TX 78205 United States",0000-00-00 00:00:00,29.4167,-98.4888,0,55,
702,Caña Rum Bar,"714 West Olympic Boulevard Los Angeles, CA 90015 United States",2021-12-27 22:22:23,34.0441,-118.263,0,55,
703,Hennessy’s Bar,"25 Union Street Boston, MA 02108 United States",0000-00-00 00:00:00,42.361,-71.0568,0,55,
704,Diller Room,"1224 1st Avenue Seattle, WA 98101 United States",0000-00-00 00:00:00,47.6068,-122.338,0,55,
705,Aero Club Bar,"3365 India Street San Diego, CA 92103 United States",0000-00-00 00:00:00,32.7381,-117.176,0,55,
706,Oak & Ivy,"707 East Fremont Street Las Vegas, NV 89101 United States",2022-09-05 01:44:59,36.1674,-115.138,0,55,"[{""text"":""Updated Venue"",""_id"":""676"",""createdAt"":""2022-09-05T08:44:58.920Z"",""user"":{""_id"":""676"",""name"":""Stephany"",""avatar"":""|1971878664_1661276120.png""}}]"
707,55 - Fifty Five South,"55 South First Street San Jose, CA 95113 United States",2022-01-15 19:25:20,37.3348,-121.89,1,55,"[{""text"":""Updated Venue"",""_id"":""419"",""createdAt"":""2022-01-16T03:25:20.872Z"",""user"":{""_id"":""419"",""name"":""Jessica"",""avatar"":""|406011653_1642302666.jpeg""}}]"
708,Rocket Bar,"714 7th Street Northwest Washington, DC 20001 United States",2022-01-15 11:02:09,38.899,-77.0223,1,55,"[{""text"":""Hi"",""user"":{""_id"":""416"",""name"":""Brittanymom31"",""avatar"":""|1642818652_1642272974.jpeg""},""createdAt"":""2022-01-15T19:02:09.237Z"",""_id"":""49400ed0-6165-4afa-98f7-18e1aeb96c1e""},{""text"":""Updated Venue"",""_id"":""416"",""createdAt"":""2022-01-15T18:51:02.326Z"",""user"":{""_id"":""416"",""name"":""Crushanda "",""avatar"":""|""}}]"
709,little bar on gravier,"510 Gravier Street New Orleans, LA 70130 United States",0000-00-00 00:00:00,29.9505,-90.0681,0,55,
791,Oman,"1 1 1, 111 Oman",0000-00-00 00:00:00,21.4735,55.9754,0,55,
793,Tesla Bar,6 vulica Zybickaja Minsk Belarus,0000-00-00 00:00:00,53.9065,27.5581,0,55,
794,47 cocktail bar,47 Calle de la Cava Baja 28005 Madrid Spain,0000-00-00 00:00:00,40.4119,-3.71021,1,55,
795,The Bunker Club,"433 Northwest 23rd Street Oklahoma City, OK 73103 United States",2022-01-12 12:39:39,35.4935,-97.5205,0,55,"[{""text"":""Updated Venue"",""_id"":""411"",""createdAt"":""2022-01-12T20:39:40.372Z"",""user"":{""_id"":""411"",""name"":""Leslie"",""avatar"":""|1316126957_1642019079.jpeg""}},{""text"":""Updated Venue"",""_id"":""411"",""createdAt"":""2022-01-12T20:38:18.888Z"",""user"":{""_id"":""411"",""name"":""Leslie"",""avatar"":""|1316126957_1642019079.jpeg""}}]"
796,The Famous Bar,"5213 Chippewa Street St. Louis, MO 63109 United States",0000-00-00 00:00:00,38.5921,-90.2798,0,55,
797,Whiskey Jack's Saloon,"552 State Street Madison, WI 53703 United States",0000-00-00 00:00:00,43.075,-89.3948,0,55,
798,Dirty Dick,10 Rue Frochot 75009 Paris France,0000-00-00 00:00:00,48.8815,2.3375,0,55,
799,Ball & Biscuit,"331 Massachusetts Avenue Indianapolis, IN 46204 United States",0000-00-00 00:00:00,39.7716,-86.1534,0,55,
800,Monkey Bar Belgrade,4 Deligradska 11000 Beograd Serbia,2022-09-30 09:13:26,44.8021,20.4653,1,55,"[{""text"":""Updated Venue"",""_id"":""703"",""createdAt"":""2022-09-30T16:13:15.464Z"",""user"":{""_id"":""703"",""name"":""Stephan"",""avatar"":""|783486850_1662554368.png""}}]"
801,Tied House Milwaukee,"124 North Water Street Milwaukee, WI 53202 United States",2022-01-09 18:20:00,43.032,-87.9092,1,55,"[{""text"":""Updated Venue"",""_id"":""408"",""createdAt"":""2022-01-10T02:19:59.256Z"",""user"":{""_id"":""408"",""name"":""Kay"",""avatar"":""|1479163870_1641780809.jpeg""}},{""text"":""Updated Venue"",""_id"":""408"",""createdAt"":""2022-01-10T02:19:16.872Z"",""user"":{""_id"":""408"",""name"":""Kay"",""avatar"":""|1479163870_1641780809.jpeg""}}]"
802,Porco Lounge & Tiki Room,"2527 West 25th Street Cleveland, OH 44113 United States",0000-00-00 00:00:00,41.4777,-81.699,0,55,
803,Klar Cocktail Bar,41 Krakowskie Przedmieście 00-070 Warszawa Poland,0000-00-00 00:00:00,52.2444,21.0139,0,55,
804,Retrograde,"530 East 19th Avenue Denver, CO 80203 United States",0000-00-00 00:00:00,39.7461,-104.981,0,55,
805,Sundry and Vice,"18 West 13th Street Cincinnati, OH 45202 United States",0000-00-00 00:00:00,39.1095,-84.516,0,55,
806,Taj Louisville,"807 East Market Street Louisville, KY 40206 United States",0000-00-00 00:00:00,38.2534,-85.7377,0,55,
807,Queens Bar Detroit,"35 East Grand River Avenue Detroit, MI 48226 United States",0000-00-00 00:00:00,42.3346,-83.0479,0,55,
808,Julep,"4141 Pennsylvania Avenue ##104 Kansas City, MO 64111 United Stat",0000-00-00 00:00:00,39.0521,-94.5905,0,55,
809,The Chug Club,Taubenstraße 13 20359 Hamburg Germany,0000-00-00 00:00:00,53.5482,9.96496,0,55,
810,The Library Bar,"611 Houston Street Fort Worth, TX 76102 United States",2022-01-14 02:21:59,32.7531,-97.331,1,55,"[{""text"":""Updated Venue"",""_id"":""411"",""createdAt"":""2022-01-14T10:21:57.835Z"",""user"":{""_id"":""411"",""name"":""Leslie Casimir"",""avatar"":""|1316126957_1642019079.jpeg""}},{""text"":""Hey"",""user"":{""_id"":""411"",""name"":""Leslie Casimir"",""avatar"":""|1316126957_1642019079.jpeg""},""createdAt"":""2022-01-12T20:54:12.570Z"",""_id"":""bdcff694-b1e7-47d8-97d1-bd3d85689d52""},{""text"":""Updated Venue"",""_id"":""411"",""createdAt"":""2022-01-12T20:54:02.928Z"",""user"":{""_id"":""411"",""name"":""Leslie Casimir"",""avatar"":""|1316126957_1642019079.jpeg""}},{""text"":""Updated Venue"",""_id"":""411"",""createdAt"":""2022-01-12T20:46:28.203Z"",""user"":{""_id"":""411"",""name"":""Leslie Casimir"",""avatar"":""|1316126957_1642019079.jpeg""}}]"
811,Moskovsky Bar,"2 Ulitsa Okhotnyy Ryad Moskva, Moskva 109012 Russian Federation",0000-00-00 00:00:00,55.757,37.6176,0,55,
812,Szimpla Kert,14 Kazinczy utca 1075 Budapest Hungary,2022-01-31 13:04:23,47.497,19.0633,2,55,"[{""text"":""Updated Venue"",""_id"":""82"",""createdAt"":""2022-01-31T21:04:22.993Z"",""user"":{""_id"":""82"",""name"":""u0421u043eu0444u0438u044f"",""avatar"":""|2058456301_1625746244.jpeg""}},{""text"":""Updated Venue"",""_id"":""527"",""createdAt"":""2022-01-31T20:21:04.653Z"",""user"":{""_id"":""527"",""name"":""Nicolu00f2"",""avatar"":""|826308922_1643660350.jpeg""}},{""text"":""Hello"",""user"":{""_id"":""303"",""name"":""Jenna"",""avatar"":""|589959837_1639817233.jpeg""},""createdAt"":""2022-01-31T07:12:30.529Z"",""_id"":""a2a105ad-c17c-49ae-98b4-4c6af5b219c9""},{""text"":""Come and play"",""user"":{""_id"":""303"",""name"":""Jenna"",""avatar"":""|589959837_1639817233.jpeg""},""createdAt"":""2022-01-29T22:20:27.360Z"",""_id"":""77566268-c804-4201-8ea7-5487f196da5a""}]"
813,El Copitas,"2 Kolokol'naya Ulitsa Sankt-Peterburg, Tsentral'nyy 191025 Russi",0000-00-00 00:00:00,59.9291,30.3485,0,55,
814,Jack's Pub,45 Strada Lipscani 030032 București Romania,2022-03-12 07:29:55,44.4319,26.1011,0,55,"[{""text"":""Updated Venue"",""_id"":""458"",""createdAt"":""2022-03-12T15:29:53.609Z"",""user"":{""_id"":""458"",""name"":""Aine "",""avatar"":""|1347784447_1643134443.jpeg""}},{""text"":""what is the best place to eat at this time"",""_id"":""472"",""createdAt"":""2022-03-12T15:29:53.622Z"",""user"":{""_id"":""472"",""name"":""Onur"",""avatar"":""|1964016725_1643141401.jpeg""}},{""text"":""Updated Venue"",""_id"":""393"",""createdAt"":""2022-01-10T16:42:28.059Z"",""user"":{""_id"":""393"",""name"":""Diana"",""avatar"":""|700039338_1641686562.jpeg""}}]"
815,REDWOOD Bar Berlin,Bergstraße 25 10115 Berlin Germany,0000-00-00 00:00:00,52.5318,13.3945,0,55,
816,Whisky Mistress,"3161 Maple Drive Northeast Atlanta, GA 30305 United States",0000-00-00 00:00:00,33.8416,-84.3719,0,55,
817,"Julius Caesar Gurgustium - Pub Lounge, Cocktail & Dance Bar",20 Via Gaeta 00185 Roma Italy,2022-05-09 02:16:39,41.9055,12.502,0,55,"[{""text"":""Updated Venue"",""_id"":""250"",""createdAt"":""2022-05-09T09:16:37.991Z"",""user"":{""_id"":""250"",""name"":""Jason"",""avatar"":""|2140959549_1643136149.jpeg""}}]"
818,Azure Beach Club Dubai,"Azure Beach Dubai Dubai, دبي United Arab Emirates",0000-00-00 00:00:00,25.0808,55.1347,0,55,
819,University of Tokyo,"7-chōme-3-1 Hongō, Bunkyo City, Tokyo 113-8654, Japan",0000-00-00 00:00:00,35.7127,139.762,0,55,
820,PSL University,"60 Rue Mazarine, 75006 Paris, France",0000-00-00 00:00:00,48.8547,2.33782,0,55,
821,University of Toronto,"27 King's College Cir, Toronto, ON M5S 1A1, Canada",0000-00-00 00:00:00,43.6609,-79.396,0,55,
822,McGill University,"845 Rue Sherbrooke O, Montréal, QC H3A 0G4, Canada",0000-00-00 00:00:00,45.5048,-73.5771,0,55,
823,Kyoto University,"Yoshidahonmachi, Sakyo Ward, Kyoto, 606-8501, Japan",0000-00-00 00:00:00,35.0262,135.781,0,55,
824,ETH Zurich,"Rämistrasse 101, 8092 Zürich, Switzerland",0000-00-00 00:00:00,47.3764,8.54763,0,55,
825,Seoul National University,"South Korea, Seoul, Gwanak-gu, 관악로 1 서울대학교 생명과학부 504동",0000-00-00 00:00:00,37.4565,126.95,0,55,
826,Karolinska Institute,"Solnavägen 1, 171 77 Solna, Sweden",0000-00-00 00:00:00,59.3481,18.0237,0,55,
827,Sorbonne University,"15-21 Rue de l'École de Médecine, 75006 Paris, France",0000-00-00 00:00:00,48.8506,2.34033,0,55,
828,University of Copenhagen,"Nørregade 10, 1165 København, Denmark",0000-00-00 00:00:00,55.6802,12.5724,0,55,
829,Institut Polytechnique de Paris,"5 Av. Le Chatelier 2ème étage, 91764 Palaiseau, France",0000-00-00 00:00:00,48.7111,2.20766,0,55,
830,University of Tokyo,"7401 N 43rd St, Brown Deer, WI 53209, USA",0000-00-00 00:00:00,43.1524,-87.9703,0,55,
831,PSL University,"7401 N 43rd St, Brown Deer, WI 53209, USA",0000-00-00 00:00:00,43.1524,-87.9703,0,55,
832,University of Toronto,"7401 N 43rd St, Brown Deer, WI 53209, USA",0000-00-00 00:00:00,43.1524,-87.9703,0,55,
833,McGill University,"7401 N 43rd St, Brown Deer, WI 53209, USA",0000-00-00 00:00:00,43.1524,-87.9703,0,55,
834,Kyoto University,"7401 N 43rd St, Brown Deer, WI 53209, USA",0000-00-00 00:00:00,43.1524,-87.9703,0,55,
835,ETH Zurich,"7401 N 43rd St, Brown Deer, WI 53209, USA",0000-00-00 00:00:00,43.1524,-87.9703,0,55,
836,Seoul National University,"7401 N 43rd St, Brown Deer, WI 53209, USA",0000-00-00 00:00:00,43.1524,-87.9703,0,55,
837,Karolinska Institute,"7401 N 43rd St, Brown Deer, WI 53209, USA",0000-00-00 00:00:00,43.1524,-87.9703,0,55,
838,Sorbonne University,"7401 N 43rd St, Brown Deer, WI 53209, USA",0000-00-00 00:00:00,43.1524,-87.9703,0,55,
839,University of Copenhagen,"7401 N 43rd St, Brown Deer, WI 53209, USA",0000-00-00 00:00:00,43.1524,-87.9703,0,55,
840,Institut Polytechnique de Paris,"7401 N 43rd St, Brown Deer, WI 53209, USA",0000-00-00 00:00:00,43.1524,-87.9703,0,55,
841,University of Paris,"7401 N 43rd St, Brown Deer, WI 53209, USA",0000-00-00 00:00:00,43.1524,-87.9703,0,55,
842,Ludwig Maximilian University of Munich,"7401 N 43rd St, Brown Deer, WI 53209, USA",0000-00-00 00:00:00,43.1524,-87.9703,0,55,
843,University of British Columbia,"7401 N 43rd St, Brown Deer, WI 53209, USA",0000-00-00 00:00:00,43.1524,-87.9703,0,55,
844,Free University of Berlin,"7401 N 43rd St, Brown Deer, WI 53209, USA",0000-00-00 00:00:00,43.1524,-87.9703,0,55,
845,Tsinghua University,"7401 N 43rd St, Brown Deer, WI 53209, USA",0000-00-00 00:00:00,43.1524,-87.9703,0,55,
846,Peking University,"7401 N 43rd St, Brown Deer, WI 53209, USA",0000-00-00 00:00:00,43.1524,-87.9703,0,55,
847,University of Melbourne,"7401 N 43rd St, Brown Deer, WI 53209, USA",0000-00-00 00:00:00,43.1524,-87.9703,0,55,
848,Hebrew University of Jerusalem,"7401 N 43rd St, Brown Deer, WI 53209, USA",0000-00-00 00:00:00,43.1524,-87.9703,0,55,
849,University of Zurich,"7401 N 43rd St, Brown Deer, WI 53209, USA",0000-00-00 00:00:00,43.1524,-87.9703,0,55,
850,Weizmann Institute of Science,"7401 N 43rd St, Brown Deer, WI 53209, USA",0000-00-00 00:00:00,43.1524,-87.9703,0,55,
851,Heidelberg University,"7401 N 43rd St, Brown Deer, WI 53209, USA",0000-00-00 00:00:00,43.1524,-87.9703,0,55,
852,Utrecht University,"7401 N 43rd St, Brown Deer, WI 53209, USA",0000-00-00 00:00:00,43.1524,-87.9703,0,55,
853,University of Chinese Academy of Sciences,"7401 N 43rd St, Brown Deer, WI 53209, USA",0000-00-00 00:00:00,43.1524,-87.9703,0,55,
854,University of Oslo,"7401 N 43rd St, Brown Deer, WI 53209, USA",0000-00-00 00:00:00,43.1524,-87.9703,0,55,
855,Osaka University,"7401 N 43rd St, Brown Deer, WI 53209, USA",0000-00-00 00:00:00,43.1524,-87.9703,0,55,
856,Technical University of Munich,"7401 N 43rd St, Brown Deer, WI 53209, USA",0000-00-00 00:00:00,43.1524,-87.9703,0,55,
857,University of Alberta,"7401 N 43rd St, Brown Deer, WI 53209, USA",0000-00-00 00:00:00,43.1524,-87.9703,0,55,
858,University of Amsterdam,"7401 N 43rd St, Brown Deer, WI 53209, USA",0000-00-00 00:00:00,43.1524,-87.9703,0,55,
859,Leiden University,"7401 N 43rd St, Brown Deer, WI 53209, USA",0000-00-00 00:00:00,43.1524,-87.9703,0,55,
860,Uppsala University,"7401 N 43rd St, Brown Deer, WI 53209, USA",0000-00-00 00:00:00,43.1524,-87.9703,0,55,
861,National University of Singapore,"7401 N 43rd St, Brown Deer, WI 53209, USA",0000-00-00 00:00:00,43.1524,-87.9703,0,55,
862,National Taiwan University,"7401 N 43rd St, Brown Deer, WI 53209, USA",0000-00-00 00:00:00,43.1524,-87.9703,0,55,
863,University of Göttingen,"7401 N 43rd St, Brown Deer, WI 53209, USA",0000-00-00 00:00:00,43.1524,-87.9703,0,55,
864,Erasmus University Rotterdam,"7401 N 43rd St, Brown Deer, WI 53209, USA",0000-00-00 00:00:00,43.1524,-87.9703,0,55,
865,Keio University,"7401 N 43rd St, Brown Deer, WI 53209, USA",0000-00-00 00:00:00,43.1524,-87.9703,0,55,
866,University of Sydney,"7401 N 43rd St, Brown Deer, WI 53209, USA",0000-00-00 00:00:00,43.1524,-87.9703,0,55,
867,University of Geneva,"7401 N 43rd St, Brown Deer, WI 53209, USA",0000-00-00 00:00:00,43.1524,-87.9703,0,55,
868,University of Basel,"7401 N 43rd St, Brown Deer, WI 53209, USA",0000-00-00 00:00:00,43.1524,-87.9703,0,55,
869,Shanghai Jiao Tong University,"7401 N 43rd St, Brown Deer, WI 53209, USA",0000-00-00 00:00:00,43.1524,-87.9703,0,55,
